address,price,lat,lon,year
48 Commercial Wharf #48,899000,42.362099,-71.050169,2012
6 Arlington St #9,4867787,42.354791,-71.072323,2008
1 Charles St S #902,807500,42.351787,-71.067367,2014
1 Avery St #31B,3475000,42.35337,-71.062515,2013
1 Avery St #10D,845000,42.35337,-71.062515,2009
1 Avery St #10B,1085000,42.35337,-71.062515,2010
201 Washington St,2.59e+08,42.358182,-71.057956,2002
201 Washington St,2.57e+08,42.358182,-71.057956,2002
1 Charles St S #12H,1345000,42.351787,-71.067367,2013
1 Charles St S #7B,1895000,42.351787,-71.067367,2022
1 Charles St S #7A,1170000,42.351787,-71.067367,2020
1 Charles St S #1606,1935000,42.351787,-71.067367,2018
1 Charles St S #PH1B,4875000,42.351787,-71.067367,2014
1 Charles St S #7G,1342500,42.351787,-71.067367,2008
1 Charles St S #PH1D,1175000,42.351787,-71.067367,2012
1 Charles St S #PH1C,2750000,42.351787,-71.067367,2007
1 Charles St S #812,1185000,42.351787,-71.067367,2018
651-653 Boylston St #1,1580000,42.349951,-71.078197,2009
1 Dalton St #2701,5195000,42.345267,-71.084125,2020
1 Dalton St #3105,5300000,42.345267,-71.084125,2019
1 Dalton St #3803,6300000,42.345267,-71.084125,2019
1 Dalton St #3901,11530000,42.345267,-71.084125,2022
1 Dalton St #4201,10625000,42.345267,-71.084125,2020
1 Dalton St #4502,9250000,42.345267,-71.084125,2020
1 Dalton St #5601,13500000,42.345267,-71.084125,2020
1 Dalton St #2604,6400000,42.345267,-71.084125,2019
1 Dalton St #2605,6400000,42.345267,-71.084125,2019
1 Dalton St #2901,6250000,42.345267,-71.084125,2019
400 Stuart St #25A,6500000,42.348853,-71.074296,2019
1 Dalton St #5001,7e+06,42.345267,-71.084125,2020
1 Dalton St #5702,16905000,42.345267,-71.084125,2020
1 Dalton St #6102,3.4e+07,42.345267,-71.084125,2020
1 Fairfield St,5e+06,42.352014,-71.083471,2020
1 Fairfield Pl #1,405250,42.365432,-71.052907,2008
1 Fairfield Pl #2,405250,42.365432,-71.052907,2008
1 Franklin St #5405,4e+06,42.356057,-71.059157,2021
1 Franklin St #PH3D,6675000,42.356057,-71.059157,2019
1 Garden St #4,770000,42.361064,-71.067029,2014
99 Kneeland St,144500000,0,0,2017
1 Huntington Ave #1001,4700000,42.349359,-71.076991,2019
1 Huntington Ave #208,1700000,42.349359,-71.076991,2017
1 Liberty Sq,50350000,42.329264,-71.053611,2006
1 Louisburg Sq #4,1700000,42.358046,-71.068377,2010
1 Marlborough St #2,1100000,42.352044,-71.082059,2001
150-158 Friend St,3287500,42.363903,-71.060521,2014
1 Otis Pl,6595000,42.357217,-71.071921,2021
100 Lovejoy Wharf #9G,1550000,0,0,2019
9 Hawthorne Pl #4P,283500,42.363479,-71.066446,2008
10 Winthrop Ln,21050000,42.355022,-71.057995,2009
1 Worcester Sq #2,571500,42.337475,-71.075668,2010
10 Claremont Park,3600000,42.342097,-71.082644,2020
10 Concord Sq #3,1500000,42.341755,-71.079273,2022
10 Fairfield St,2400000,42.351876,-71.08315,2007
10 Otis Pl #4B,1750000,42.35712,-71.071928,2019
10 Rutland Sq,1725000,42.341258,-71.077878,2010
24 Temple Pl,24915000,42.3552,-71.061924,2001
10 Wellington St,2550000,42.341128,-71.081361,2022
10-12 Wiget St,3100000,42.364087,-71.056446,2015
10 Arlington St,22500000,42.350634,-71.06997,2017
51 Province St,1050000,42.356904,-71.060208,2007
51 Province St,1337500,42.356904,-71.060208,2007
100 Beacon St #5B,3100000,42.35531,-71.073021,2022
100 Belvidere St #10B,5900000,42.346046,-71.083886,2019
100 Lovejoy Wharf #7J,1700000,0,0,2018
40-42 Symphony Rd,3775000,42.342849,-71.088408,2002
100 South St #1,455000,42.351004,-71.057175,2013
185 Devonshire St #503,655000,42.356022,-71.057339,2017
100 Summer St,8.06e+08,42.353622,-71.057662,2019
100 Beacon St #PHB,9e+06,42.355395,-71.073063,2012
321 Harrison Ave,114200000,42.34555,-71.063712,2017
101 Beacon St,7750000,42.355292,-71.072767,2014
99-105 Broad St #4D,590000,42.357369,-71.052621,2017
101 Prince St #3,499000,42.365871,-71.056315,2006
101-103 Summer St,11500000,42.35349,-71.057826,2011
101-111 Summer St,37400000,42.35345,-71.057588,2019
343 Commercial St #101,706000,42.366097,-71.051114,2011
40 Battery St #102,1255000,42.366496,-71.051362,2007
102 Chandler St,5450000,42.346289,-71.073103,2018
102 Charles St #102,1e+06,42.358816,-71.070851,2009
102 Commercial St #3,629000,42.361896,-71.052821,2009
102 Saint Botolph St,2250000,42.246694,-71.177759,2017
19-21 Essex St,1840000,42.352351,-71.061964,2000
4 Charlesgate E #401,1050000,42.349847,-71.091522,2021
103-111 Arch St,2200000,42.355538,-71.058125,2013
103 Marlborough St #8,375000,42.353487,-71.076713,2010
103 Warren Ave,2500000,42.344601,-71.073723,2020
105 Appleton St,3250000,42.345411,-71.074062,2019
105 Beacon St #4,610000,42.355225,-71.072979,2019
105 Beacon St #9,470000,42.355225,-71.072979,2015
105 Myrtle St,3102750,42.359429,-71.068358,2021
105 N Washington St,2100000,42.365532,-71.058281,2022
105 Pinckney St,1177465,42.358923,-71.069723,2009
70 Marlborough St #9,910000,42.35373,-71.075118,2019
104 Chestnut St,2280000,42.356571,-71.071501,2016
106 Prince St,1810100,42.365766,-71.05655,2012
106 Tyler St,3010000,42.348253,-71.061579,2017
107 Jersey St #20A,3e+05,42.342918,-71.097177,2019
107 Pinckney St,1049629,42.358921,-71.069833,2009
108-116 Richmond St,5e+06,42.36288,-71.053893,2010
149 North St,9e+05,42.362241,-71.054721,2012
1084 Boylston St,1675000,42.346908,-71.088836,2007
348 Newbury St,3666667,42.348329,-71.087034,2022
109 Appleton St,2135000,42.345374,-71.074203,2014
109 Beacon St #4,649000,42.355142,-71.073285,2010
1091 Boylston St #1,177000,42.347058,-71.088989,2011
1091 Boylston St #32,188000,42.347058,-71.088989,2011
1091 Boylston St #35,230000,42.347058,-71.088989,2014
1 Charles St S #10C,2195000,42.351787,-71.067367,2015
28-30 Phillips St,2225000,42.360257,-71.067722,2012
11 Avenue De Lafayette,22925000,42.246694,-71.177759,2021
11 Anderson St,1485000,42.360642,-71.067809,2021
9-11 Beacon St,1.6e+07,42.358359,-71.061913,2010
11 Belvidere St,4500000,42.346266,-71.08654,2017
11 Concord Sq,200,42.341056,-71.078459,2009
11 Gloucester St #4,1100000,42.351046,-71.084946,2020
31 Greenwich Park,3700000,42.335651,-71.083973,2017
11 Hereford St,850000,42.351084,-71.086933,2004
11 Park Dr #19,579000,42.344604,-71.094755,2017
11 Rutland Sq,3e+06,42.341386,-71.077706,2016
9-11 Worcester Sq #4,1500000,42.33597,-71.073825,2014
55 Revere St,2e+06,42.359661,-71.068441,2008
110 Canal St,2.4e+07,42.364741,-71.060509,2021
112-118 Canal St,2.4e+07,42.364757,-71.060529,2021
110 Pembroke St,1800000,42.342403,-71.076918,2012
110 Peterborough St,8e+06,42.342973,-71.099706,2011
110 Saint Botolph St,2900000,42.344523,-71.081239,2019
110 Stuart St #23F,865000,42.351007,-71.065413,2011
110 Stuart St #22B,1950000,42.351007,-71.065413,2013
110 Union Park St #2,399900,42.340289,-71.066838,2010
110 Union Park St #2,343000,42.340289,-71.066838,2001
1109 Boylston St #20,594000,42.346649,-71.090327,2017
111-115 Newbury St,1.4e+07,42.351488,-71.075861,2007
1111 Boylston St #23,1,42.346668,-71.090363,2013
1111 Boylston St #24,1,42.346668,-71.090363,2013
1111 Boylston St #28,1,42.346668,-71.090363,2013
1111 Boylston St #29,1,42.346668,-71.090363,2013
1111 Boylston St #30,1,42.346668,-71.090363,2013
1111 Boylston St #37,1,42.346668,-71.090363,2013
1111 Boylston St #38,1,42.346668,-71.090363,2013
1111 Boylston St #41,1,42.346668,-71.090363,2013
1111 Boylston St #49,1,42.346668,-71.090363,2013
1111 Boylston St #53,1,42.346668,-71.090363,2013
Wharf St #BB,515000,0,0,2009
112 Charles St,2900000,42.359064,-71.070873,2020
102-114 Water St,5e+06,42.35791,-71.055366,2006
54-58 Kilby St,5e+06,42.35796,-71.055237,2006
112 Myrtle St,1700000,42.359249,-71.068572,2016
112 Pembroke St,2425000,42.342439,-71.076956,2013
113 Appleton St,2500000,42.345337,-71.074345,2021
1140 Washington St #2F,1337000,42.342947,-71.066904,2019
114 Appleton St #2,645000,42.345169,-71.07426,2016
114 Prince St,1475000,42.366078,-71.056858,2021
115 Gainsborough St,19400000,42.342617,-71.089809,2013
115 Salem St #C1,685000,42.364476,-71.055335,2021
115-119 Broad St,21500000,42.357301,-71.052452,2016
85-87 Wendell St,21500000,42.356918,-71.052462,2016
89-99 Wendell St,21500000,42.356923,-71.052451,2016
300 Marlborough St #1,5300000,42.351352,-71.083959,2016
300 Marlborough St #2,5300000,42.351352,-71.083959,2016
300 Marlborough St #3,5300000,42.351352,-71.083959,2016
300 Marlborough St #4,5300000,42.351352,-71.083959,2016
300 Marlborough St #5,5300000,42.351352,-71.083959,2016
300 Marlborough St #6,5300000,42.351352,-71.083959,2016
300 Marlborough St #7,5300000,42.351352,-71.083959,2016
300 Marlborough St #8,5300000,42.351352,-71.083959,2016
300 Marlborough St #9,5300000,42.351352,-71.083959,2016
116 Riverway #99,401000,42.343359,-71.104849,2016
117 Commonwealth Ave #1,8e+06,42.352391,-71.077438,2016
117 Commonwealth Ave #2,4850000,42.352391,-71.077438,2019
118 Appleton St,4175000,42.345126,-71.074423,2019
118 Charles St,1585000,42.359129,-71.070756,2003
119-1/2 Saint Botolph St,4525000,42.344261,-71.081568,2021
119 Warren Ave,1650000,42.344455,-71.074261,2010
180 Beacon St #11D,1100000,42.35455,-71.075815,2014
180 Beacon St #11E,1975000,42.35455,-71.075815,2014
12 Bradford St #2,650000,42.342809,-71.068745,2015
12-12A Derne St,1500000,42.35954,-71.063306,2022
12 Foster St,3600000,42.367416,-71.054418,2014
12-12A Grove St,1475000,42.360748,-71.068599,2011
12 Hemenway St,12500000,42.346462,-71.089265,2014
15 Haviland St,12500000,42.346305,-71.088654,2014
12 Hereford St #4,1415000,42.351148,-71.086705,2014
12 Marlborough St #3,3750000,42.354436,-71.072539,2016
12 Walnut St #4,478000,42.357897,-71.066019,2006
12-18 Lagrange St,1e+07,42.35157,-71.064231,2021
12 Melrose St #2,462000,42.349497,-71.067479,2017
100 Legends Way,3401000,42.365434,-71.062528,2003
120 Appleton St,3100000,42.345105,-71.074505,2021
120 Charles St,1920000,42.359312,-71.070894,2010
120 Commercial St #4-2,390000,42.362133,-71.052603,2007
120 Mountfort St #504,1085000,42.348404,-71.106001,2022
120 Salem St,3416000,42.364748,-71.05556,2012
126 Salem St,784000,42.365085,-71.055543,2012
120 Fulton St #7A,2072000,42.362941,-71.052695,2016
300 Boylston St #1201,5050000,42.352009,-71.069917,2021
300 Boylston St #1202,4500000,42.351851,-71.070215,2016
121-123 Beach St #101,524000,42.350656,-71.057767,2008
121 Brookline Ave,110000,42.345674,-71.10026,2010
121 Charles St S #121,540000,42.349394,-71.066649,2014
121 Pembroke St,2e+06,42.342649,-71.076867,2011
121 Warren Ave,2300000,42.344436,-71.074328,2022
121 Beacon St #1,785000,42.355004,-71.073793,2016
220 Boylston St #1210,2400000,42.352354,-71.068329,2016
133 Seaport Blvd #1219,1098000,42.350971,-71.043923,2021
1 Franklin St #4703,4300000,42.356057,-71.059157,2021
123 Newbury St,9550000,42.351321,-71.07651,2007
123 Newbury St,4350000,42.351321,-71.07651,2003
123 Pembroke St,3456000,42.34269,-71.076909,2020
123 South St #4,375100,42.351086,-71.057409,2013
123 Saint Botolph St #9,699000,42.246694,-71.177759,2019
109-153 Lincoln St,39500000,42.351394,-71.058452,2017
125 Newbury St,9450000,42.351292,-71.076618,2013
125 Pembroke St,1510000,42.342731,-71.076952,2003
126 Tremont St,11500000,42.356662,-71.06182,2022
127 Myrtle St,2100000,42.359413,-71.068846,2007
122-126 State St,6725000,42.359236,-71.055281,2012
127 Pembroke St #1,573000,42.342772,-71.076994,2014
127 Saint Botolph St,3650000,42.246694,-71.177759,2013
127-129A Newbury St,11600000,42.351263,-71.076725,2007
128 Beacon St #A,4100000,42.354908,-71.074857,2006
128 Beacon St #A,5310000,42.354908,-71.074857,2021
128 Beacon St #K,6100000,42.3551,-71.073792,2022
128 Beacon St #D,7500000,42.3551,-71.073792,2022
128 Beacon St #F,2436800,42.354908,-71.074857,2013
128 Saint Botolph St,2800000,42.344002,-71.081896,2022
70 Van Ness St,2316600,42.345067,-71.09916,2010
27 Wareham St #201,312500,42.339576,-71.067957,2002
27 Wareham St #203,312500,42.339576,-71.067957,2002
27 Wareham St #301,312500,42.339833,-71.068094,2002
27 Wareham St #303,312500,42.339576,-71.067957,2002
150 Beacon St #1,2e+05,42.354676,-71.075708,2001
150 Beacon St #1,1700000,42.354676,-71.075708,2001
128 Beacon St #D,4100000,42.3551,-71.073792,2006
128 Beacon St #C,775000,42.354908,-71.074857,2007
1280-1284 Washington St #PH,4275000,42.342255,-71.067594,2012
1280-1284 Washington St #502,2385000,42.342255,-71.067594,2018
137 Peterborough St #12A,430000,42.342964,-71.100443,2012
13 Anderson St,3e+06,42.360638,-71.06793,2021
13 Bradford St,2058000,42.342638,-71.068648,2017
13 Byron St,2125000,42.356518,-71.070233,2008
13 Garrison St,5020000,42.346065,-71.080032,2018
13 Haviland St,2209200,42.346469,-71.088364,2003
13 Hereford St,2575000,42.351084,-71.086933,2006
13 Hereford St,4300000,42.351084,-71.086933,2016
13 Wiget St,1675000,42.363997,-71.056058,2018
13 Gloucester St #1,1613000,42.350917,-71.084881,2016
251-253 Marlborough St #2,2485000,42.351967,-71.082347,2020
13 Gloucester St #3,799000,42.350917,-71.084881,2016
130 Appleton St #4C,1200000,42.34502,-71.074831,2019
130 Chestnut St,1370000,42.356484,-71.071955,2000
130 Commonwealth Ave,9500000,42.351717,-71.077546,2013
130 Chestnut St,2050000,42.356484,-71.071955,2005
130-132 Fulton St #20,430000,42.36302,-71.052604,2018
130 Lincoln St #130,849000,42.351328,-71.058226,2018
130 Myrtle St,2650000,42.359231,-71.068863,2007
130 Tremont St,5044750,42.355397,-71.063003,2007
130 Tremont St,5300000,42.355397,-71.063003,2008
120-130 Water St,2845000,42.357978,-71.055221,2001
131 W Newton St,2200000,42.34195,-71.07702,2021
131 Park Dr #31,175000,42.341493,-71.097645,2008
10 Edgerly Pl,9250000,42.349248,-71.068952,2020
Arlington St,9250000,0,0,2020
Winchester St,9250000,0,0,2020
132 Charles St #2,1290000,42.360679,-71.070868,2008
132 Lincoln St #10,625000,42.351299,-71.058238,2022
132 Saint Marys St,950000,42.345404,-71.106289,2002
405 Commonwealth Ave #4,542000,42.348805,-71.090287,2014
133 Seaport Blvd #510,991800,42.350971,-71.043923,2021
133 Pearl St #1,875000,42.354931,-71.053871,2008
1320-1330 Boylston St,4e+06,42.344297,-71.098481,2002
471-473 Albany St,2550000,42.339656,-71.065048,2017
1341-1355 Boylston St,9900000,42.344249,-71.099324,2008
135 Seaport Blvd #1109,1695000,42.350971,-71.043923,2021
136 Beacon St #10,4e+06,42.354815,-71.075197,2020
136 Newbury St,7600000,42.35095,-71.077178,2022
136 W Canton St,3900000,42.343121,-71.075338,2022
137-139 Pearl St #M1,1175000,42.354903,-71.053844,2022
137 Peterborough St #19,595000,42.342964,-71.100443,2017
137 South St #2,685000,42.350928,-71.057429,2021
137 W Newton St,2410000,42.342337,-71.077549,2021
139 Warren Ave,1425000,42.344265,-71.074954,2012
14 Beacon St,25400000,42.358259,-71.062209,2017
14 Charles River Sq,1500000,42.359792,-71.071436,2013
14 Chestnut St,3900000,42.357601,-71.066855,2009
14 Gloucester St,4205000,42.350919,-71.085141,2015
14 Hereford St #1,825000,42.351148,-71.086705,2018
14 Hereford St #1,740000,42.351148,-71.086705,2013
14 Holyoke St,3500000,42.344783,-71.077945,2021
14 Lindall Pl,810000,42.361042,-71.0693,2009
14 Pinckney St,2550000,42.358779,-71.06563,2010
14 Rutland Sq,3700000,42.342427,-71.078887,2018
14 Walnut St,7900000,42.357908,-71.066022,2014
140 Mount Vernon St #4,1e+06,42.357419,-71.071997,2009
141 W Canton St,2150000,42.342154,-71.074431,2012
14-16 Derne St,3825000,42.359534,-71.063389,2021
142 Prince St,1470000,42.366675,-71.057656,2020
142 W Concord St,1625000,42.339725,-71.077354,2013
142 Commercial St #202,667000,42.36246,-71.052338,2019
1421-1431 Washington St,1e+07,42.340951,-71.070626,2019
143 Worcester St,2050000,42.341285,-71.079854,2013
144 Commonwealth Ave #4,5e+05,42.352201,-71.078174,2015
144 Warren Ave #2,4560000,42.344114,-71.075168,2020
144 W Canton St #1,3600000,42.343121,-71.075338,2022
145 Pinckney St #628,760000,42.358804,-71.072238,2022
145 Pinckney St #226,695000,42.358897,-71.07179,2015
145 Worcester St,2500000,42.34131,-71.079885,2020
146 Commonwealth Ave,1.2e+07,42.352187,-71.078231,2021
146 W Newton St,6300000,42.342136,-71.077352,2021
147-149 Charles St,8300000,42.360399,-71.070732,2021
147 Fulton St,1700000,42.362885,-71.05244,2009
148 Beacon St #2,3900000,42.354699,-71.075623,2008
148 State St,11180000,42.359358,-71.054262,2000
149 Beacon St #2,935000,42.354738,-71.074773,2015
149 Endicott St,2485000,42.365145,-71.057263,2017
149 W Newton St,2350000,42.342448,-71.077507,2019
149-151 Pearl St,4950000,42.354819,-71.053766,2019
500 Atlantic Ave #14A,889000,42.353734,-71.053491,2006
15-19 Bartlett Pl,1700000,42.364255,-71.056244,2019
15 Blackwood St #2,679900,42.342885,-71.08256,2014
15 Bond St,1735000,42.343587,-71.069051,2021
15 Commonwealth Ave,12500000,42.35358,-71.072956,2012
15 Gray St #2,836000,42.34585,-71.070777,2015
15 Joy St,2050000,42.358981,-71.064942,2009
15 Keswick St #3,509000,42.345864,-71.105797,2019
15 Park Dr #21,159000,42.344564,-71.094764,2003
15 River St #307,820000,42.356737,-71.070034,2017
15 River St #504,1e+06,42.356737,-71.070034,2019
15 Snow Hill St,1050000,42.366245,-71.056365,2014
15 Taylor St,1680000,42.344065,-71.068497,2015
776 Boylston St #E10D,4228959,42.348809,-71.081814,2008
13-15 Winter St,3200000,42.355922,-71.061191,2011
15 Park Dr #35,370000,42.34463,-71.094625,2021
15-15A Garden St #1,1,42.360798,-71.067017,2015
15-15A Garden St #3,1,42.360798,-71.067017,2015
15-15A Garden St #4,1,42.360798,-71.067017,2015
15-15A Garden St #5,1,42.360798,-71.067017,2015
150-152 Commercial St,3750000,42.362594,-71.052226,2021
154-156 Kneeland St,1200000,42.349869,-71.058127,2003
158-160 Kneeland St,6e+05,42.349838,-71.057983,2003
150 Chandler St #1,10000,42.346011,-71.07408,2001
150 Beacon St #2,4158895,42.354676,-71.075708,2009
45 Province St #1101,475000,42.356912,-71.060201,2012
151-153 Beacon St #6,1975000,42.354716,-71.074855,2008
151-153 Endicott St,1150000,42.365212,-71.057271,2007
151 Tremont St #10S,590000,42.355397,-71.063003,2016
152 Salem St,2860000,42.365765,-71.055258,2019
153 W Newton St,3180000,42.342558,-71.077616,2022
155-155A Salem St,3500000,42.365576,-71.055109,2015
155 W Brookline St,3475000,42.342149,-71.075366,2021
156 W Brookline St,1765000,42.343387,-71.076796,2012
155-157 W Springfield St,4700000,42.338849,-71.078594,2022
158-158A Salem St,2342500,42.365935,-71.055151,2012
158 Mount Vernon St,4500000,42.357419,-71.071997,2018
158-158A Salem St,1530000,42.365935,-71.055151,2008
158-158A Salem St,1875000,42.365935,-71.055151,2008
159 Saint Botolph St #1,40000,42.343562,-71.082432,2011
80 Broad St #309,6e+05,42.357598,-71.052925,2022
500 Atlantic Ave #15B,1425000,42.353653,-71.053436,2013
16 Bond St,2e+06,42.343496,-71.069348,2022
16 Clarendon St #16,1228125,42.344747,-71.072442,2015
14 Concord Sq #3,485000,42.340903,-71.078611,2012
14-16 E Springfield St,9e+05,42.33659,-71.075792,2010
16 Follen St,3805000,42.345022,-71.079966,2019
16 Hull St,1225000,42.366591,-71.05527,2009
16 Lawrence St,1500000,42.346263,-71.072037,2020
194 Salem St,4240000,42.366532,-71.054771,2016
16 Pinckney St,1512500,42.35878,-71.065724,2012
90 Saint Botolph St,5e+06,42.246694,-71.177759,2017
16 River St,4500000,42.356611,-71.070226,2014
16 River St,2500000,42.356611,-71.070226,2013
16-16A S Russell St,1320000,42.36079,-71.065853,2007
16 Shawmut St,550000,42.350233,-71.06804,2001
16-24 Union Park St,5425000,42.34201,-71.0703,2015
160 Commonwealth Ave #707,675000,42.351537,-71.078204,2018
160 Federal St #C24,2050000,42.354062,-71.056015,2018
160 Federal St #G30,2050000,42.354062,-71.056015,2018
160 Federal St #C1A,1.9e+08,42.354062,-71.056015,2017
160 Federal St #C1B,1.9e+08,42.354062,-71.056015,2017
160 Federal St #C1C,1.9e+08,42.354062,-71.056015,2017
160 Federal St #C1D,1.9e+08,42.354062,-71.056015,2017
160 Federal St #C2,1.9e+08,42.354062,-71.056015,2017
160 Federal St #C20,1.9e+08,42.354062,-71.056015,2017
160 Federal St #C22,1.9e+08,42.354062,-71.056015,2017
160 Federal St #G1,1.9e+08,42.354062,-71.056015,2017
160 Federal St #G100,1.9e+08,42.354062,-71.056015,2017
160 Federal St #G20,1.9e+08,42.354062,-71.056015,2017
160 Federal St #G22,1.9e+08,42.354062,-71.056015,2017
160 Federal St #G24,1.9e+08,42.354062,-71.056015,2017
160 Federal St #G26,1.9e+08,42.354062,-71.056015,2017
160 Federal St #G29,1.9e+08,42.354062,-71.056015,2017
160 Federal St #G32,1.9e+08,42.354062,-71.056015,2017
160 Federal St #G34,1.9e+08,42.354062,-71.056015,2017
160 Federal St #C21,3e+06,42.354062,-71.056015,2017
160 Federal St #G21,3e+06,42.354062,-71.056015,2017
160 Federal St #G31,3e+06,42.354062,-71.056015,2017
160 Federal St #C12,2783531,42.354062,-71.056015,2000
160 Federal St #C15,7817500,42.354062,-71.056015,2000
160 Federal St #C6,39417708,42.354062,-71.056015,2000
160 Federal St #C7,30981260,42.354062,-71.056015,2000
160 Newbury St,7600000,42.350666,-71.078214,2007
160 Saint Botolph St,3100000,42.246694,-71.177759,2021
161 W Brookline St,2091000,42.343679,-71.076798,2018
161 W Canton St,4035000,42.3436,-71.075783,2015
162 Prince St,910000,42.367038,-71.057973,2011
162-164 Lincoln St,2e+06,42.350892,-71.058409,2015
162-164 Lincoln St,2017031,42.350892,-71.058409,2015
163-165 Marlborough St #5,2425000,42.352775,-71.079293,2014
163-165 Marlborough St #1A,725000,42.352775,-71.079293,2017
163-165 Marlborough St #3,1268801,42.352775,-71.079293,2020
163 Commonwealth Ave,4674000,42.351987,-71.078989,2010
164 Endicott St,1683000,42.365654,-71.057572,2013
165 W Newton St,1442500,42.342889,-71.077945,2004
324-332 Beacon St #146,1910000,42.352637,-71.083224,2003
165 Tremont St #901,2175000,42.354233,-71.063727,2019
165 Tremont St #1601,2009000,42.354233,-71.063727,2013
165 Tremont St #1701,3450000,42.354321,-71.063812,2015
165 W Canton St,4600000,42.343549,-71.07563,2019
73 Rutland St #3,635000,42.34048,-71.076636,2018
166-168 Salem St,3200000,42.366412,-71.05471,2021
166 Marlborough St #3,3525000,42.35261,-71.079555,2018
107 Chestnut St #4,1430000,42.356682,-71.071896,2016
167 W Newton St,1975000,42.342944,-71.078,2018
160 Beacon St #3,7525000,42.35455,-71.075815,2016
168 Marlborough St #1,1975000,42.35258,-71.079309,2014
41-43 Edgerly Rd,5316000,42.345379,-71.087848,2019
169 Newbury St,6300000,42.350681,-71.078851,2020
2 Hawthorne Pl #16L,310000,42.363418,-71.066692,2012
500 Atlantic Ave #16N,2e+06,42.353653,-71.053436,2009
17 Bond St,3670000,42.343578,-71.069063,2018
17 Claremont Park #1,1020000,42.34236,-71.08194,2012
7 Cortes St,805000,42.348312,-71.069513,2000
17 Garrison St,2e+06,42.346055,-71.080015,2011
17 Gloucester St #9,1100000,42.350788,-71.084816,2011
17 Greenwich Park,1900000,42.335683,-71.083942,2011
17 Louisburg Sq,14800000,42.358424,-71.068599,2022
118 Riverway #17,365000,42.34327,-71.104387,2014
17-19 Winter St,14500000,42.356006,-71.061391,2007
Friend St,1085000,0,0,2011
171 Beacon St #4-3,214000,42.354494,-71.075674,2000
171 Newbury St,13250000,42.350652,-71.078956,2014
171 Beacon St #2-3,314000,42.354533,-71.075879,2011
171 Tremont St,16762265,42.353493,-71.064067,2015
172 Newbury St,6600000,42.350499,-71.078815,2007
1721 Washington St #A,1850000,42.336989,-71.076499,2018
173 Endicott St,670000,42.365907,-71.057508,2018
174 W Brookline St,2950000,42.343169,-71.07666,2015
175 Beacon St,6300000,42.354449,-71.075838,2017
175 Commonwealth Ave #D,2770000,42.35179,-71.079728,2018
175 Marlborough St #2,4550000,42.352634,-71.07983,2020
300 Pier 4 Blvd #6D,5300000,0,0,2022
175 Saint Botolph St #1,729000,42.246694,-71.177759,2017
265 Purchase St,2e+07,42.353399,-71.055686,2012
265 Purchase St,14900000,42.353399,-71.055686,2001
176 Marlborough St #3,1600000,42.35261,-71.079555,2013
176-178 North St,8250000,42.363168,-71.054152,2019
176-178 North St,5500000,42.363168,-71.054152,2016
177 Newbury St,3500000,42.350564,-71.079271,2007
213 W Canton St #1,7e+05,42.345112,-71.076756,2011
45 Temple St #603,3850000,42.359805,-71.063566,2022
178 W Canton St,4200000,42.344094,-71.075887,2020
179 Beacon St #3,625000,42.354404,-71.076001,2012
179 Marlborough St #2,1815000,42.352587,-71.080009,2013
179 Massachusetts Ave #2,3e+06,42.345888,-71.087193,2017
179 Saint Botolph St,4925000,42.246694,-71.177759,2018
179 Saint Botolph St,3900000,42.246694,-71.177759,2014
179 Newbury St,4082500,42.350535,-71.079377,2007
18 Exeter St,3201000,42.352018,-71.080608,2007
18 Hanson St #2,905000,42.343299,-71.069858,2014
40 Lawrence St #2,395000,42.345991,-71.073071,2013
18 Stillman St #1,1285000,42.363779,-71.056674,2015
18 Stillman St #2,1285000,42.363779,-71.056674,2015
18 Stillman St #3,1285000,42.363779,-71.056674,2015
18 Stillman St #4,1285000,42.363779,-71.056674,2015
18 Winchester St,1600000,42.349621,-71.067874,2018
180 Beacon St #12G,2200000,42.354329,-71.076986,2008
180 Beacon St #16A,1800000,42.354329,-71.076986,2017
180 Beacon St #2D,585000,42.35455,-71.075815,2014
180 Beacon St #6D,2950000,42.35455,-71.075815,2020
180 Beacon St #6E,2950000,42.354329,-71.076986,2020
180 Beacon St #4D,1825000,42.35455,-71.075815,2012
180 Cambridge St #2,470000,42.361109,-71.065262,2016
180 Commonwealth Ave #14,1200000,42.35166,-71.079853,2022
180 Endicott St,1350000,42.365972,-71.0577,2017
180 Marlborough St #3,3150000,42.352461,-71.079763,2013
181 Marlborough St #3,3227500,42.352563,-71.080098,2008
183-185A Massachusetts Ave #100,1500000,42.345393,-71.086945,2019
184 Marlborough St #1,785000,42.352421,-71.079914,2010
172-174 High St,19500000,42.356572,-71.052636,2016
185 Devonshire St #M102,726000,42.356022,-71.057339,2015
185 Devonshire St #201,816900,42.356022,-71.057339,2014
185 Devonshire St #201,802000,42.356022,-71.057339,2020
185 Devonshire St #M102,601000,42.356022,-71.057339,2020
185 Devonshire St #503,521625,42.356022,-71.057339,2015
188 W Brookline St,3760000,42.343029,-71.076525,2014
500 Atlantic Ave #18N,2300000,42.353653,-71.053436,2009
19 Bradford St,2100000,42.34287,-71.068244,2019
19 Clark St,450000,42.365178,-71.052876,2014
19 Cumberland St,1350000,42.343441,-71.081958,2012
19 Gray St #1,1460000,42.345575,-71.071455,2021
19 Hanson St,985000,42.343522,-71.06983,2008
19-21 Snow Hill St,1850000,42.366302,-71.056365,2021
19 S Russell St,2700000,42.360909,-71.066099,2020
19 Stillman St,444000,42.363885,-71.056417,2014
19 Symphony Rd,2150000,42.342866,-71.087298,2009
19 Symphony Rd,2020000,42.342866,-71.087298,2009
190 Commonwealth Ave #7,750000,42.351033,-71.080112,2012
190 W Springfield St #1,1263873,42.339654,-71.079691,2019
190 Commonwealth Ave #7,750000,42.351033,-71.080112,2006
146 Marlborough St #1,4400000,42.353145,-71.077656,2006
163-165 Marlborough St #2,4400000,42.352775,-71.079293,2006
163-165 Marlborough St #3,825000,42.352775,-71.079293,2006
191 Commonwealth Ave #41,5550000,42.351579,-71.080514,2017
191 Commonwealth Ave #42,5550000,42.351579,-71.080514,2017
191 Commonwealth Ave #21,875000,42.351579,-71.080514,2016
193 Beacon St #1,1850000,42.354249,-71.076575,2014
194 Salem St,1850000,42.366532,-71.054771,2015
19 Exeter St,3650000,42.351052,-71.080392,2007
193-195 State St,3750000,42.359327,-71.052976,2002
193-195 State St,7700000,42.359327,-71.052976,2013
249 Marlborough St #4,1050000,42.351982,-71.08229,2005
194 Marlborough St #3,345000,42.352321,-71.080292,2002
197 Marlborough St,5850000,42.352375,-71.080813,2015
197 Marlborough St,1.3e+07,42.352375,-71.080813,2017
198-202 Warren Ave,2830000,42.324735,-71.082811,2016
2 Commonwealth Ave #10B,4650000,42.353354,-71.071403,2016
1166 Washington St #303,1075000,42.343217,-71.066414,2018
27 Saint Stephen St #9,420000,42.342924,-71.086231,2012
6 Whittier Pl #16A,390000,42.366192,-71.06722,2007
1 Dalton St #5404,8150000,42.345267,-71.084125,2022
188 Brookline Ave #24G,999000,42.344222,-71.101666,2021
79-79A Phillips St,1525000,42.360407,-71.069491,2010
534-538 Commonwealth Ave #5B,436000,42.348678,-71.096251,2009
2 Avery St #36H,2175000,42.353193,-71.063136,2016
2 Avery St #19G,1250000,42.353193,-71.063136,2017
2 Avery St #21D,2050000,42.353193,-71.063136,2015
2 Avery St #25C,3150000,42.35328,-71.062559,2021
2 Avery St #21A,733000,42.353193,-71.063136,2006
2 Cazenove St,3499000,42.346605,-71.072299,2019
2 Clarendon St #209,1050000,42.344091,-71.072116,2018
2 Clarendon St #301,705000,42.344091,-71.072116,2017
2 Commonwealth Ave #15D,1675000,42.353354,-71.071403,2016
2 Commonwealth Ave #8B,5200000,42.353354,-71.071403,2021
102-102A Myrtle St,2940000,42.359316,-71.068136,2021
4 Phillips St #3,560000,42.360284,-71.066532,2016
17 Bond St,1200000,42.343578,-71.069063,2014
159 Salem St #4,765000,42.365689,-71.055038,2012
16 Union Park #3,750000,42.657837,-70.622573,2016
2 Hawthorne Pl #114N,239000,42.363418,-71.066692,2003
110 Stuart St #18I,390000,42.351007,-71.065413,2012
33 Chestnut St #2,1675000,42.357399,-71.068159,2021
6-10 Oliver St,61500000,42.357314,-71.054638,2007
2 Saint Charles St,1720000,42.347047,-71.071972,2016
110 Stuart St #PH5,2200000,42.351007,-71.065413,2015
2 Milford St #2,1040000,42.343638,-71.069118,2021
2 Strong Pl,2500000,42.3611,-71.068119,2015
4 Strong Pl,2500000,42.361094,-71.068118,2015
500 Atlantic Ave #20A,2270000,42.353653,-71.053436,2013
20 Brimmer St,4375000,42.358069,-71.071918,2010
20 Charles River Sq,3050000,42.359807,-71.072033,2014
20 Cleveland Pl,1525000,42.365937,-71.05585,2007
6 Whittier Pl #15O,325625,42.366192,-71.06722,2011
6 Whittier Pl #10P,320000,42.366192,-71.06722,2012
6 Whittier Pl #2B,250000,42.366192,-71.06722,2011
20 Lawrence St,810000,42.346168,-71.072396,2005
728-740 Tremont St #6,5125000,42.340362,-71.078369,2018
70 Brimmer St #107,450000,42.356292,-71.07141,2020
20 Pine St,760000,42.347308,-71.062825,2014
20 Rowes Wharf #609,3050000,42.356979,-71.050463,2018
20 Sheafe St,8600000,42.366344,-71.055942,2022
20 Sheafe St,5e+06,42.366344,-71.055942,2014
21 N Bennet St #3HI,2200000,42.365601,-71.054436,2020
20 Wellington St,3363000,42.341568,-71.081872,2022
20 W Cedar St,4550000,42.357895,-71.069593,2020
200 Lincoln St #303,380000,42.349986,-71.058812,2004
200 Lincoln St #203,330000,42.349986,-71.058812,2012
81-89 Causeway St,21400000,42.364807,-71.062477,2000
200 Saint Botolph St #5,8e+05,42.342502,-71.083713,2017
200 State St,1.67e+08,42.359671,-71.051788,2008
406 Marlborough St #4,1550000,42.350155,-71.088389,2019
440 Commercial St #404,656000,42.367283,-71.052961,2007
43 Hemenway St,1300000,42.345375,-71.089682,2006
21 Father Francis Gilday St #116,780000,42.338026,-71.072592,2019
201 Newbury St #501,1575000,42.350246,-71.080415,2014
201 Newbury St #407,815000,42.350246,-71.080415,2019
201 Newbury St #RC,42625000,42.350246,-71.080415,2007
201 Newbury St #209,1495000,42.350246,-71.080415,2015
195-201 South St,1.4e+07,42.350431,-71.05754,2013
207-209 South St,1.4e+07,42.350345,-71.057562,2013
158-160 Kneeland St,27500000,42.349838,-71.057983,2016
207-209 South St,27500000,42.350345,-71.057562,2016
201 W Brookline St #203,4485000,42.343679,-71.076798,2022
207-209 South St,8e+06,42.350345,-71.057562,2006
580 Washington St #PHG,2975000,42.353823,-71.062232,2018
31-33 Commonwealth Ave #4,2800000,42.353258,-71.074211,2018
505 Tremont St #202,1375000,42.345021,-71.070212,2008
200-202 Beacon St #1,8e+06,42.353957,-71.078032,2021
200-202 Beacon St #3,8e+06,42.353957,-71.078032,2021
202 Commonwealth Ave #1,3900000,42.350758,-71.081421,2017
202 Commonwealth Ave #5,2100000,42.350889,-71.080611,2003
10 Otis Pl #6B,3325000,42.357347,-71.072338,2021
205 Commonwealth Ave #1,2300000,42.351411,-71.08114,2019
203 Commonwealth Ave #203,2760000,42.351438,-71.081035,2017
203 Saint Botolph St #3,1310000,42.246694,-71.177759,2020
204-204A Hanover St,2e+06,42.362778,-71.055672,2013
150 Worcester St #3,995000,42.341211,-71.079929,2022
207 W Springfield St,1267500,42.340494,-71.080242,2009
500 Atlantic Ave #20H,4950000,42.353653,-71.053436,2007
21 Beacon St #G3,1700000,42.358102,-71.062597,2022
21 Beacon St #6N,445000,42.358102,-71.062597,2015
21 Cortes St,4800000,42.34836,-71.069862,2018
21 Cumberland St #1,920000,42.343433,-71.081947,2021
21 Holyoke St,1750000,42.344714,-71.077656,2011
21 Holyoke St,3832803,42.344714,-71.077656,2013
21 Piedmont St #21,3175000,42.34999,-71.06795,2020
21 S Russell St,2375000,42.360288,-71.065957,2022
21-23 Temple Pl,3e+06,42.355385,-71.062513,2006
37-43 Temple Pl,1750000,42.355213,-71.062168,2006
33-35 West St,3900000,42.354937,-71.062536,2006
210 Beacon St #3,3195000,42.354019,-71.078159,2020
210 Beacon St #4,3195000,42.354019,-71.078159,2020
210 W Springfield St,2825000,42.339999,-71.079895,2022
209-217 Congress St,19340000,42.3548,-71.054924,2001
211 Newbury St,3600000,42.350103,-71.080926,2008
211 Commonwealth Ave,12736000,42.35133,-71.081454,2014
343 Commercial St #212,1485000,42.366097,-71.051114,2008
212 W Canton St #3,1450000,42.345314,-71.077252,2016
214 Beacon St #1,1050000,42.353972,-71.078326,2018
214 Beacon St #2,2450000,42.353972,-71.078326,2018
215 W Canton St #4,596000,42.345143,-71.076804,2013
215 Commonwealth Ave #5,904000,42.351219,-71.081508,2012
216 Beacon St #1,3225000,42.353949,-71.078409,2016
216 Newbury St,1,42.349906,-71.080943,2016
217 Albany St,2250000,42.345453,-71.061615,2015
217 Newbury St,3e+06,42.350017,-71.081233,2007
20 Beacon St #4,2800000,42.358125,-71.062544,2017
500 Atlantic Ave #21K,6e+06,42.353653,-71.053436,2011
22 Braddock Park,3e+06,42.332832,-71.071378,2019
22 Dartmouth Pl,1400000,42.344836,-71.074333,2008
20-22A Fleet St,5800000,42.364717,-71.052802,2018
22 Hancock St,1675000,42.360786,-71.064351,2006
22 Montgomery St,1300000,42.343474,-71.074063,2013
22 W Cedar St,7025000,42.357984,-71.069643,2017
220 Boylston St #1102,1100000,42.352207,-71.068581,2013
220 Boylston St #1201,10250000,42.352207,-71.068581,2014
220 Boylston St #1201,6351968,42.352207,-71.068581,2000
227 Commercial St,3e+06,42.363576,-71.05115,2015
222 Commonwealth Ave,8100000,42.350624,-71.081569,2020
223 Beacon St #2,870000,42.353939,-71.077741,2012
223 Commonwealth Ave,1e+07,42.351154,-71.082081,2020
223 W Springfield St,1e+06,42.340886,-71.080658,2007
225-227 E Berkeley St,1150000,42.343334,-71.064146,2012
225 W Springfield St,1100000,42.340934,-71.080725,2008
225 Newbury St,8800000,42.349904,-71.081642,2012
226 Causeway St,4.3e+07,42.366526,-71.059296,2011
226 Causeway St,1.07e+08,42.366526,-71.059296,2018
226 Marlborough St #5,1545000,42.352033,-71.081381,2017
400 Stuart St #22B,1775000,42.348934,-71.074349,2011
3 Avery St #602,540000,42.353283,-71.063135,2015
23 Holyoke St #2,755000,42.344729,-71.077679,2016
85 E India Row #24D,5e+05,42.358311,-71.050532,2013
74 Fenway #16,240000,42.342769,-71.091398,2015
23 Symphony Rd,2650000,42.342888,-71.087443,2008
23 W Cedar St,5125000,42.358458,-71.069635,2014
23 Commonwealth Ave #3,1810000,42.353393,-71.07369,2007
23-27 Church St,4195000,42.34895,-71.068012,2015
230 Beacon St #3,5e+05,42.353788,-71.078993,2014
230 Commonwealth Ave #1,2600000,42.350523,-71.081953,2008
218-230 Congress St,41600000,42.35449,-71.054294,2007
230-230A Tremont St,2140000,42.351242,-71.064743,2022
230-238 Hanover St,6500000,42.363219,-71.055223,2008
2-1/2 Battery Wharf #2301,675000,0,0,2008
2-1/2 Battery Wharf #2401,675000,0,0,2008
231 Marlborough St,4800000,42.352121,-71.08177,2012
232 Beacon St #5,1557000,42.353765,-71.079076,2014
232 Clarendon St,3969000,42.353301,-71.076383,2021
233 Beacon St,7400000,42.353827,-71.078158,2017
234 Beacon St #4A,650000,42.353742,-71.079159,2012
234 Causeway St #712,585000,42.366538,-71.059491,2017
232-234 Friend St,1900000,42.364345,-71.060977,2015
234 Clarendon St,3464500,42.35329,-71.076377,2007
236 Newbury St,6100000,42.349624,-71.08197,2007
237 Marlborough St,5100000,42.352075,-71.081943,2016
237 Marlborough St,9e+06,42.352075,-71.081943,2021
2 Avery St #23D,1935000,42.35328,-71.062559,2021
31 Phillips St,4855000,42.360436,-71.067794,2022
24 Appleton St,2550000,42.346033,-71.070979,2021
24 Haviland St,8200000,42.346279,-71.088367,2008
24 Holyoke St #1,1165000,42.344572,-71.077805,2008
24-24A Joy St,2425000,42.359298,-71.065172,2013
24-24A Joy St,1250000,42.359298,-71.065172,2007
254 Marlborough St #1,2e+06,42.351772,-71.082362,2018
24 Marlborough St #3,1425000,42.35429,-71.073087,2017
24 Marlborough St #5,1255000,42.35429,-71.073087,2016
24 Union Park,5400000,42.657845,-70.622585,2015
238 Commonwealth Ave,16100000,42.350422,-71.082337,2021
240 Commonwealth Ave,16100000,42.350758,-71.081421,2021
240-246 Commercial St,8500000,42.363743,-71.051312,2019
241 W Newton St,4060000,42.344466,-71.080262,2022
242 Marlborough St #4,1300000,42.351884,-71.081941,2019
244 Hanover St,1.1e+07,42.363448,-71.054847,2016
244 Newbury St,7600000,42.349679,-71.082496,2018
244 Newbury St,2800000,42.349679,-71.082496,2008
425 Newbury St #N41,90000,42.348159,-71.089626,2015
245 Summer St,728500000,42.351354,-71.052911,2020
245 W Canton St #2,2125000,42.345384,-71.077174,2020
246 Marlborough St #2,339000,42.351846,-71.082082,2008
246 Newbury St,5350000,42.349656,-71.082592,2020
249 Beacon St #2,1915000,42.353643,-71.078825,2019
249 Newbury St #C2,1e+06,42.34962,-71.082736,2011
249 Newbury St #C1,1310000,42.34962,-71.082736,2010
1 Avery St #24D,2400000,42.35337,-71.062515,2017
25 Beacon St #2,10200000,42.357195,-71.06499,2018
25 Beacon St #3,8850000,42.357195,-71.06499,2017
25 Beacon St #4,8200000,42.357195,-71.06499,2019
19-21 Charles St,9e+06,42.356741,-71.069542,2015
19-29 Charles St,9e+06,42.35687,-71.069744,2015
19-29 Charles St,12200000,42.35687,-71.069744,2019
25 Clark St #3,505000,42.365144,-71.052756,2016
25 Commonwealth Ave #25,17200000,42.353346,-71.073873,2017
1 Huntington Ave #1001,2525000,42.349359,-71.076991,2000
1 Huntington Ave #401,475000,42.349359,-71.076991,2000
9 Miner St,2700000,42.346697,-71.103109,2012
25 Revere St #3,895000,42.359685,-71.067342,2014
25 Ridgeway Ln #3,375000,42.360794,-71.06395,2012
25 Rutland Sq,1712000,42.341727,-71.078074,2006
25 Pinckney St,1,42.358962,-71.065993,2016
250 Boylston St #2B,1850000,42.35205,-71.069294,2007
250 Boylston St #2A,3690000,42.35205,-71.069294,2006
248-252 Hanover St,1675000,42.363535,-71.054912,2011
220 Boylston St #1612,5400000,42.352207,-71.068581,2018
251-253 Marlborough St #3,3515000,42.351967,-71.082347,2013
251-253 Marlborough St #8,5350000,42.351967,-71.082347,2020
253-261 Tremont St,2325000,42.35024,-71.065273,2009
254 Commonwealth Ave #2,1478000,42.350219,-71.083096,2018
254 Marlborough St #2,2810000,42.351772,-71.082362,2018
254 Newbury St,4650000,42.349561,-71.082977,2012
254 Newbury St,4085000,42.349561,-71.082977,2009
255 Commonwealth Ave #3,1970000,42.350793,-71.083413,2019
255 Commonwealth Ave #2,1835000,42.350793,-71.083413,2014
255 Marlborough St #1,3100000,42.351936,-71.082463,2016
257 Commonwealth Ave #3,7500000,42.350696,-71.083414,2022
257 Commonwealth Ave #1,1785000,42.350696,-71.083414,2022
257 Commonwealth Ave #2,1225000,42.350696,-71.083414,2022
258 W Newton St #2,3100000,42.344877,-71.081227,2018
258 W Newton St #3,3100000,42.344877,-71.081227,2018
258 W Newton St #4,3100000,42.344877,-71.081227,2018
259 North St #1,1104000,42.363895,-71.051904,2022
26 Lawrence St,1530000,42.346026,-71.072933,2017
26 Milford St #1,2610000,42.344133,-71.069905,2019
26 Temple St #4,6e+05,42.360483,-71.063522,2012
257-261 Newbury St,4e+06,42.349526,-71.083121,2000
261-261A North St,1350000,42.363702,-71.051915,2010
261-261A North St,1225000,42.363702,-71.051915,2006
263 Commonwealth Ave #2,1010000,42.350598,-71.08413,2017
263 Commonwealth Ave #4,840000,42.350598,-71.08413,2016
263 Newbury St,2200000,42.349455,-71.08341,2008
265 Commonwealth Ave,5800000,42.350512,-71.084447,2007
265-275 Dartmouth St,12155614,42.350105,-71.077253,2007
266 Commercial St,2e+06,42.364047,-71.051218,2021
267 Beacon St #2,2500000,42.353385,-71.080082,2022
400 Stuart St #26A,4e+06,42.348934,-71.074349,2012
65 E India Row #39C,670000,42.357947,-71.050993,2000
27 Charter St,3725000,42.366823,-71.053505,2019
27 Charter St,2350000,42.366823,-71.053505,2016
70-72 Mount Vernon St #1A27,920000,42.358168,-71.067324,2012
27 Dartmouth St #1,1500000,42.343696,-71.074049,2018
25 Isabella St,11400000,42.348838,-71.069732,2017
27 Isabella St #5,3550000,42.348748,-71.069732,2022
27-29 N Margin St,1205000,42.364408,-71.056516,2016
17 Symphony Rd #3,455000,42.342855,-71.087225,2009
27 Sheafe St,1350000,42.366389,-71.055546,2009
27 Sheafe St,1635000,42.366389,-71.055546,2011
27 Thacher St,1400000,42.36541,-71.057698,2021
127 Tremont St #127,2325000,42.355957,-71.061478,2021
27 Braddock Park #2,2525000,42.344004,-71.078255,2017
505 Tremont St #418,2525000,42.34481,-71.070261,2022
27-29 Stuart St,5150000,42.351133,-71.064561,2021
27-29 Stuart St,1200000,42.351133,-71.064561,2013
27 Dartmouth St #4,530000,42.343696,-71.074049,2013
270 Huntington Ave #307,208500,42.342205,-71.085568,2018
270 Newbury St,4650000,42.349371,-71.083748,2012
265-275 Dartmouth St #2A,480000,42.350105,-71.077253,2016
265-275 Dartmouth St #6L,691500,42.350105,-71.077253,2019
268-274 Friend St,1150000,42.364822,-71.061469,2010
268-274 Friend St,5100000,42.364822,-71.061469,2017
272-274A Shawmut Ave,3375000,42.343062,-71.068835,2019
273 Beacon St #1,2950000,42.353333,-71.07993,2018
55-57 Traveler St,13775000,42.344298,-71.063192,2012
275 Marlborough St,3925000,42.351782,-71.083041,2012
275 Newbury St,12500000,42.349309,-71.083987,2014
276 Newbury St,2.5e+07,42.349297,-71.084035,2019
278 Newbury St,2.5e+07,42.349272,-71.084131,2019
278 Newbury St,2725000,42.349272,-71.084131,2007
188 Brookline Ave #PH29B,2900000,42.344222,-71.101666,2021
28 Braddock Park,1965000,42.332951,-71.071259,2012
28 Chestnut St,5700000,42.357555,-71.067477,2003
28 Concord Sq #1,3300000,42.341348,-71.079032,2019
28 Concord Sq #2,3300000,42.341348,-71.079032,2019
28 Concord Sq #3,3300000,42.341348,-71.079032,2019
28 Concord Sq #4,3300000,42.341348,-71.079032,2019
28 Concord Sq #5,3300000,42.341348,-71.079032,2019
28 Concord Sq #6,3300000,42.341348,-71.079032,2019
28 Concord Sq #7,3300000,42.341348,-71.079032,2019
28 Concord Sq #1,1170000,42.341348,-71.079032,2018
28-30 Cooper St,1400000,42.364386,-71.056563,2016
65 Park Dr #17,340000,42.342777,-71.094816,2022
28 Dartmouth St #1,450000,42.343631,-71.074276,2021
128 Beacon St #L,4e+06,42.354908,-71.074857,2006
28 Hanson St #3,740000,42.343407,-71.070022,2010
65 E India Row #28E,1e+06,42.358036,-71.051007,2011
65 E India Row #28F,1e+06,42.357947,-71.050993,2011
28 Irving St,2400000,42.360834,-71.066374,2022
28 Melrose St,1350000,42.349153,-71.068254,2016
28-30 Phillips St,3250000,42.360257,-71.067722,2021
28 State St,343292,42.358994,-71.057498,2014
28 W Cedar St #1,2060000,42.358253,-71.069789,2018
280 Commonwealth Ave #306,695000,42.350158,-71.083678,2021
280-290 Commercial St,3866580,42.36434,-71.051214,2008
101-111 Causeway St,24500000,42.365047,-71.062015,2015
280 Commonwealth Ave #G5,280000,42.34988,-71.084357,2010
280 Commonwealth Ave #406,725000,42.350158,-71.083678,2022
282-284 Cambridge St #1,425000,42.361009,-71.06812,2008
282 Newbury St #5,850000,42.349253,-71.084215,2020
283 Commonwealth Ave #4,5048000,42.350341,-71.084721,2022
284 Commonwealth Ave,7990000,42.349848,-71.084474,2015
284 Marlborough St,5250000,42.351508,-71.083358,2017
285 Beacon St #5A,1275000,42.353145,-71.080573,2019
285 Beacon St #5B,1275000,42.353145,-71.080573,2019
285 Columbus Ave #408,875000,42.346859,-71.074162,2011
286 Beacon St #9,1225000,42.353091,-71.081484,2019
286 Commonwealth Ave #3,2200000,42.349819,-71.084583,2022
29 Cumberland St #3,475000,42.343402,-71.081901,2003
29 Hereford St,5325000,42.350445,-71.086614,2017
29 Marlborough St #1,799000,42.354229,-71.073315,2020
29 Union Park #2,1310000,42.657384,-70.622582,2010
29 W Cedar St,3450000,42.358756,-71.069779,2018
31 Brimmer St #4,1999000,42.357961,-71.072078,2018
291 Newbury St,1925000,42.349146,-71.084602,2003
291 Shawmut Ave #2,543000,42.342622,-71.069779,2007
293-295 Commonwealth Ave #5D,590000,42.35025,-71.085384,2020
293-297 North St,4500000,42.364335,-71.051657,2017
293-295 Commonwealth Ave #6A,440000,42.34991,-71.086243,2013
295-297 Beacon St #73,1243000,42.352999,-71.081112,2015
293-295 Commonwealth Ave #6C,577000,42.35025,-71.085384,2006
296 Marlborough St,2800000,42.351391,-71.083809,2011
297 Commonwealth Ave #3,4e+06,42.350179,-71.085632,2017
297 Marlborough St,2606000,42.351588,-71.083782,2010
279 Marlborough St,6350000,42.351751,-71.083156,2015
297 Commonwealth Ave #4,3450000,42.350179,-71.085632,2010
298 Beacon St,6500000,42.352948,-71.082034,2014
298 Shawmut Ave #3,975000,42.342483,-71.069819,2012
299 Marlborough St #1,755000,42.351567,-71.083864,2013
299 Marlborough St #3,442855,42.351567,-71.083864,2010
299 Newbury St,3765531,42.349051,-71.084935,2007
492 Massachusetts Ave #1,9e+05,42.33959,-71.080429,2004
3 Acorn St,3715000,42.357637,-71.068373,2016
3 Avery St #904,750000,42.35337,-71.062604,2020
3 Avery St #401,650000,42.353283,-71.063135,2021
3 Avery St #901,565500,42.35337,-71.062604,2012
3 Bond St,1400000,42.34364,-71.068978,2019
3 Claremont Park #5,1175000,42.342059,-71.081173,2015
31-33 Commonwealth Ave #7,3396000,42.353258,-71.074211,2008
234 Causeway St #919,570000,42.366538,-71.059491,2004
3 Avery St #703,531000,42.35337,-71.062604,2015
3 N Hudson St,2600000,42.367496,-71.057044,2016
3 North Sq,1640000,42.363889,-71.053644,2016
3 Stillman Pl,876000,42.363853,-71.057592,2015
7 Worcester St,2325000,42.337677,-71.075756,2012
3 Joy St,1.5e+07,42.358378,-71.06496,2016
3-5 Quincy Ct,2239000,42.363442,-71.053474,2016
30 Chestnut St,6800000,42.357413,-71.067683,2020
30 Commonwealth Ave #2,2249000,42.352928,-71.07292,2019
30 Concord Sq,3075000,42.341755,-71.079273,2022
30 Fayette St,955000,42.348759,-71.06745,2009
65 E India Row #30F,1665000,42.358036,-71.051007,2015
65 Commercial Wharf #3,2390000,42.36275,-71.051389,2019
28-30 Lime St #28-30,1295000,42.357232,-71.070865,2006
30 Milford St,970000,42.343865,-71.06958,2008
30 Winter St,12050000,42.355964,-71.061782,2001
30 Winter St,30250000,42.355964,-71.061782,2007
6 Columbus Sq #1,615000,42.351339,-71.068283,2003
300 Boylston St #1003,6950000,42.351851,-71.070215,2021
300 Boylston St #519,2375000,42.351851,-71.070215,2018
300 Commercial St #201,490000,42.365011,-71.051232,2022
300 Commercial St #906,1410000,42.365011,-71.051232,2012
300 Marlborough St,5900000,42.351352,-71.083959,2021
300 Pier 4 Blvd #8J,4200000,0,0,2022
300 Pier 4 Blvd #5D,4799700,0,0,2021
302 Beacon St #GDN,6225000,42.352767,-71.082359,2022
302 Beacon St #PH,3200000,42.352767,-71.082359,2022
303 Berkeley St #9,2550000,42.354411,-71.074474,2003
303 Commonwealth Ave #3,2e+06,42.350074,-71.086003,2017
303 Commonwealth Ave #2,1350000,42.350074,-71.086003,2008
1313 Washington St #702,2750000,42.341948,-71.068372,2020
304 Beacon St #1,995000,42.352876,-71.082308,2004
304 Shawmut Ave,3150000,42.342321,-71.07008,2018
217 Commonwealth Ave,17500000,42.351242,-71.08177,2018
306 Beacon St #1,1850000,42.352852,-71.0824,2010
201 Newbury St #306,1020000,42.350246,-71.080415,2017
307-309 North St,2750000,42.364663,-71.051667,2021
309 Marlborough St,2400000,42.351461,-71.08427,2011
309 Marlborough St,8800000,42.351461,-71.08427,2020
31 E Concord St,1325000,42.337204,-71.074312,2009
31 Fairfield St,3e+06,42.350059,-71.082524,2015
31 Holyoke St,2225000,42.344787,-71.077767,2006
31 New Chardon St,2400000,42.362421,-71.061587,2004
31 State St,6225000,42.358793,-71.057052,2012
300 Boylston St #609,1395000,42.351851,-71.070215,2003
31-35 Beaver Pl,2500000,42.356155,-71.072377,2011
31-35 Beaver Pl,7500000,42.356155,-71.072377,2018
31-35 India St,4200000,42.358179,-71.052808,2015
310 Columbus Ave #1,815000,42.346532,-71.074241,2010
314 Beacon St #2&3,1800000,42.352757,-71.082766,2014
314 Dartmouth St #B,6150000,42.352546,-71.078703,2020
315 Marlborough St,2750000,42.351398,-71.084514,2012
62 Hereford St,7250000,42.348704,-71.085496,2014
319 Beacon St,5100000,42.35273,-71.082136,2009
319 Beacon St,2298900,42.35273,-71.082136,2008
319 Beacon St,3500000,42.35273,-71.082136,2007
319 Dartmouth St,3625000,42.352925,-71.078634,2022
319 Marlborough St #3,880000,42.351356,-71.084677,2010
95 Gainsborough St #307,515000,42.342473,-71.088869,2013
32 Clarendon St,2500000,42.345194,-71.072652,2016
32 Fairfield St #1,2285000,42.350178,-71.082449,2018
32 Fairfield St #2,2285000,42.350115,-71.082294,2018
30-32 Grove St #10,3e+05,42.359904,-71.068657,2012
32 River St,4250000,42.356988,-71.07044,2016
12 Bay State Rd,3400000,42.311329,-71.05693,2012
32 Upton St,4030000,42.342465,-71.072514,2022
32 Williams St #1,864000,42.343169,-71.126425,2021
320 Beacon St #1,2431500,42.352685,-71.083041,2021
320 Beacon St #2,2431500,42.352685,-71.083041,2021
320 Shawmut Ave #3,1050000,42.341956,-71.070684,2018
320 Shawmut Ave #4,1050000,42.341956,-71.070684,2018
321 Beacon St,5200000,42.352706,-71.082228,2017
321 Dartmouth St #4,4600000,42.352979,-71.07866,2021
357 Commercial St #321,415000,42.366214,-71.051154,2014
322 Beacon St #4,811000,42.352661,-71.083132,2014
323 Beacon St,4152260,42.352683,-71.082319,2014
326 Dartmouth St #1R,475000,42.352916,-71.078758,2011
327 Beacon St #3,1950000,42.352635,-71.082503,2016
326-328 Commercial St #CS3,670000,42.365616,-71.051266,2014
416 Marlborough St #604,760000,42.35004,-71.088819,2020
65 E India Row #9E,762000,42.357947,-71.050993,2021
329 Commonwealth Ave #3,2935000,42.349285,-71.086613,2018
329 Commonwealth Ave #4,1,42.349285,-71.086613,2016
329 Commonwealth Ave #5,1,42.349285,-71.086613,2016
329 Commonwealth Ave #2,875000,42.349565,-71.087529,2016
329 Commonwealth Ave #3,2e+06,42.349285,-71.086613,2015
329 Commonwealth Ave #1,499996,42.349285,-71.086613,2015
329 Commonwealth Ave #4,1250000,42.349285,-71.086613,2015
329 Commonwealth Ave #5,1250000,42.349285,-71.086613,2015
329 Newbury St,3800000,42.348727,-71.086197,2007
329 Newbury St,8500000,42.348727,-71.086197,2008
32 Fleet St #A,347000,42.364335,-71.052291,2014
33-33A Anderson St,1800000,42.360169,-71.067898,2009
33 Bowdoin St,2750000,42.360229,-71.062991,2016
33 Hanson St,2820000,42.343658,-71.070036,2015
33 N Margin St,2095000,42.364478,-71.056519,2017
31-33 Commonwealth Ave #3,7650000,42.353258,-71.074211,2017
33 Bowdoin St,4500000,42.360229,-71.062991,2015
70 Brimmer St #330,250000,42.356292,-71.07141,2007
330 Dartmouth St #3N,1250000,42.353066,-71.078832,2021
324-332 Beacon St #56,9e+05,42.352637,-71.083224,2003
324-332 Beacon St #55,1206585,42.352637,-71.083224,2003
332 Washington St,4500000,42.356752,-71.058861,2008
331 Hanover St,5e+05,42.36427,-71.053805,2006
333 Commonwealth Ave #21,1080000,42.349719,-71.087308,2004
325 Columbus Ave #4,930000,42.346106,-71.075097,2017
337 Newbury St,3950000,42.348627,-71.086605,2010
337 Newbury St,2e+06,42.348627,-71.086605,2009
338 Commonwealth Ave #3,1400000,42.349252,-71.087112,2021
33 Commercial Wharf #33A,1920000,42.362965,-71.051673,2020
21-23 Temple Pl,2650000,42.355385,-71.062513,2008
34 Cooper St,1450000,42.364378,-71.0568,2014
34 Dwight St #1,2730000,42.344471,-71.06927,2021
34 Hancock St #4A,1300000,42.360547,-71.064454,2021
34 Lime St,2825000,42.35721,-71.070947,2002
34 Union Park,6400000,42.657865,-70.622617,2022
340 Beacon St #1,4e+06,42.352488,-71.08377,2020
304 Beacon St #1,1350000,42.352876,-71.082308,2008
333 Washington St #340,40000,42.356845,-71.059073,2013
2-1/2 Battery Wharf #3403,1545000,0,0,2009
1 Dalton St #3405,5500000,42.345267,-71.084125,2019
341 Beacon St #6D,2600000,42.352468,-71.083143,2018
341 Commonwealth Ave #1,1,42.349624,-71.08767,2019
341 Commonwealth Ave #3,1,42.349624,-71.08767,2019
341 Commonwealth Ave #4,1,42.349624,-71.08767,2019
341 Commonwealth Ave #5,1,42.349624,-71.08767,2019
341 Commonwealth Ave #6,1,42.349624,-71.08767,2019
341 Marlborough St,7800000,42.351109,-71.085595,2013
342-342A Newbury St,2121500,42.348406,-71.086732,2010
342 Commercial St #C1,1762500,42.365971,-71.051326,2008
343 Commercial St #114,4050000,42.366072,-71.05123,2017
343 Washington St #102A,2750000,42.35673,-71.059203,2020
34-1/2 Beacon St #7,1775000,42.357195,-71.06499,2011
345 Commonwealth Ave #1,490000,42.349577,-71.087851,2021
345 Commonwealth Ave #2,490000,42.349577,-71.087851,2021
345 Harrison Ave,32150000,42.344938,-71.063955,2014
346 Marlborough St,8330000,42.350865,-71.08578,2020
347 Commonwealth Ave #B,1950000,42.349553,-71.087942,2011
348 Newbury St,500,42.348329,-71.087034,2017
349 Newbury St,7450000,42.348472,-71.087217,2003
1 Saint George St #3A,340000,42.338762,-71.071597,2019
1 Saint George St #3A,340000,42.338762,-71.071597,2019
35-35A Charter St,1755000,42.367042,-71.053861,2007
35 Commonwealth Ave #3,14500000,42.353025,-71.074723,2021
35 Grove St,4550000,42.360024,-71.068786,2021
35 Kingston St #1,589000,42.353608,-71.059239,2013
35-34A N Margin St,3250000,42.364647,-71.056529,2013
35-34A N Margin St,4200000,42.364647,-71.056529,2014
35-34A N Margin St,1840000,42.364647,-71.056529,2010
35 Rutland Sq #5,705000,42.34197,-71.078323,2010
324-332 Beacon St #35,1065000,42.352637,-71.083224,2001
35 W Newton St,2e+06,42.338808,-71.073719,2008
350 Washington St,5.8e+07,42.35653,-71.059112,2000
370 Marlborough St #5,1e+06,42.350572,-71.086838,2018
75 Hancock St,4600000,42.359009,-71.064489,2015
352 Marlborough St,4755235,42.350781,-71.08608,2019
353 Beacon St,4e+06,42.352349,-71.083584,2007
353-355B Hanover St,3600000,42.364641,-71.053443,2019
357 Commercial St #5,487500,42.366244,-71.051291,2020
36 Appleton St #1,1344000,42.345953,-71.071633,2021
36 Commonwealth Ave #1,7500000,42.352769,-71.07383,2016
36 E Springfield St,2025000,42.336299,-71.075449,2017
36 Greenwich Park #2,675000,42.335537,-71.083784,2019
36 Holyoke St,2800000,42.344665,-71.077948,2015
36 Lime St,5700000,42.357203,-71.070974,2013
36 Milford St,2400000,42.343914,-71.069679,2018
36 Newbury St,7500000,42.352165,-71.072655,2021
36 Newbury St,13750000,42.352165,-71.072655,2022
36 N Bennet St,2235000,42.365469,-71.0546,2016
36 Symphony Rd #3A,955000,42.342825,-71.088249,2022
36 Upton St #3,915000,42.34256,-71.072625,2011
360 Newbury St #806,2825000,42.348168,-71.087641,2015
360 Newbury St #401,1350000,42.348168,-71.087641,2019
360 Newbury St #607,1100000,42.348168,-71.087641,2006
360 Newbury St #509,960000,42.348168,-71.087641,2012
360 Newbury St #511,1200000,42.348168,-71.087641,2006
360 Newbury St #810,4e+06,42.348454,-71.086921,2012
1 Dalton St #3605,5810000,42.345267,-71.084125,2019
2-1/2 Battery Wharf #3609,2525000,0,0,2008
361 Beacon St #3,7800000,42.352167,-71.084516,2021
357-361 Hanover St,3800000,42.364715,-71.053371,2017
366 Commonwealth Ave #2D,579000,42.348882,-71.088439,2017
367-369 Washington St,5250000,42.35648,-71.059487,2004
369 Beacon St #3,1260000,42.352157,-71.084225,2015
37 Cooper St,1300000,42.364549,-71.057044,2012
37 Lawrence St #15,409000,42.345808,-71.073781,2013
37 Revere St #3,799000,42.359673,-71.067729,2021
37 Rutland Sq #1&2,2424000,42.342022,-71.07837,2015
37 Sheafe St,4250000,42.366438,-71.055669,2016
37 Rutland Sq #1&2,2425000,42.342022,-71.07837,2020
37 Winchester St,2200000,42.349561,-71.069088,2011
37 Winchester St,924500,42.349561,-71.069088,2009
37-43 Temple Pl,4875000,42.355213,-71.062168,2008
1 Dalton St #3704,2985000,42.345267,-71.084125,2019
373 Commonwealth Ave #603,875000,42.349307,-71.0909,2021
375 Beacon St,2550000,42.352083,-71.084472,2008
375 Marlborough St #4,1e+06,42.350662,-71.087217,2014
377 Commonwealth Ave #1,826978,42.349307,-71.0909,2019
377 Commonwealth Ave #2,867910,42.349307,-71.0909,2019
377 Commonwealth Ave #4,339205,42.349307,-71.0909,2019
377 Commonwealth Ave #5,562436,42.349307,-71.0909,2019
377 Commonwealth Ave #6,410000,42.349307,-71.0909,2019
377 Commonwealth Ave #7,637099,42.349307,-71.0909,2019
377 Commonwealth Ave #8,364598,42.34922,-71.089517,2019
210-216 Lincoln St #203,490000,42.349981,-71.058815,2003
38 Holyoke St #C,6e+05,42.344681,-71.077972,2020
380 Commercial St #380,975000,42.366427,-71.051499,2019
374-380 Commonwealth Ave,8819853,42.348846,-71.089079,2014
380 Commonwealth Ave #1,4300000,42.34891,-71.089812,2019
380 Marlborough St #3,2185000,42.350456,-71.087269,2022
381 Beacon St,3325000,42.352022,-71.084718,2006
381 Commonwealth Ave,1170000,42.349307,-71.0909,2002
384-390 Boylston St,4500000,42.351452,-71.071961,2011
387 Beacon St,4380000,42.35196,-71.084963,2017
39 Appleton St,1682000,42.346027,-71.071717,2019
39 Beacon St,15300000,42.357088,-71.065825,2017
39 Concord Sq,2124500,42.341832,-71.079201,2011
39 E Concord St #2,1,42.337068,-71.074154,2014
39 E Concord St #3,1,42.337068,-71.074154,2014
39 E Concord St #4,1,42.337068,-71.074154,2014
39 E Concord St #5,1,42.337068,-71.074154,2014
39 E Concord St #6,1,42.337068,-71.074154,2014
39 Hemenway St #10,240000,42.345429,-71.089667,2014
39 Hemenway St #25,220000,42.345429,-71.089667,2014
39 Hemenway St #12A,2e+05,42.345429,-71.089667,2013
39 Hemenway St #2,250000,42.345429,-71.089667,2013
39 Hemenway St #24,295000,42.345429,-71.089667,2013
39 W Newton St,2175000,42.339121,-71.074111,2015
39-39A Worcester Sq #5,592500,42.336272,-71.074395,2015
39-39A Worcester Sq #3,480000,42.336272,-71.074395,2009
39-39A Worcester Sq #1,680000,42.336272,-71.074395,2013
390 Commonwealth Ave #201,850000,42.34891,-71.089812,2022
390 Commercial St #390,737000,42.366583,-71.051678,2009
1 Charles St S #PH205,1580000,42.351787,-71.067367,2016
390 Commonwealth Ave #310,785250,42.348872,-71.088555,2008
390 Commonwealth Ave #312,660000,42.348872,-71.088555,2013
390 Commonwealth Ave #612,810000,42.348872,-71.088555,2018
390 Commonwealth Ave #512,591000,42.348872,-71.088555,2005
425 Newbury St #F3,150000,42.348159,-71.089626,2022
1 Dalton St #3901,10600000,42.345267,-71.084125,2019
391 Commonwealth Ave #1,750000,42.349307,-71.0909,2015
393 Commonwealth Ave #GDN,375000,42.34922,-71.089517,2008
393 Commonwealth Ave #4,2685000,42.349331,-71.090176,2016
393 Commonwealth Ave #GDN,516000,42.34922,-71.089517,2015
393 Beacon St,8e+06,42.351898,-71.085209,2022
395 Beacon St,8e+06,42.351878,-71.08529,2022
395 Commonwealth Ave,12500000,42.348837,-71.089339,2021
425 Newbury St #N45,90000,42.348159,-71.089626,2008
398 Beacon St #PH,2850000,42.352162,-71.084535,2018
398 Beacon St #1A,6e+06,42.352022,-71.085472,2020
100 Lovejoy Wharf #3B,1280000,0,0,2020
449-463 Washington St #4A,625000,42.355484,-71.060652,2012
15 Blackwood St #2,640501,42.342885,-71.08256,2012
45 Province St #3N,985000,42.356912,-71.060201,2013
130 Appleton St #4D,975000,42.34502,-71.074831,2013
145 Pinckney St #106,3e+05,42.358897,-71.07179,2014
4 Durham St #1,1350000,42.344001,-71.081179,2022
4 Durham St #1,1200000,42.344001,-71.081179,2018
396-398 Hanover St,2713902,42.365958,-71.05295,2014
4 Fountain Pl,4286098,42.366559,-71.05278,2014
400-404 Hanover St,2713902,42.365995,-71.05294,2014
4 Liberty Sq,12250000,42.329262,-71.053368,2016
4 Liberty Sq,8800000,42.329262,-71.053368,2014
36 E Springfield St,2800000,42.336299,-71.075449,2019
4 Marlborough St,12550000,42.354532,-71.072173,2018
4 N Hudson St,1200000,42.367689,-71.056764,2007
4 Otis Pl,3450000,42.357129,-71.071893,2018
1 Franklin St #2304,2575000,42.356057,-71.059157,2018
4 Pinckney St,2380000,42.358769,-71.065168,2015
776 Boylston St #E10H,2300000,42.348809,-71.081814,2018
220 Boylston St #1410,4350000,42.352207,-71.068581,2018
4 Symphony Rd #4,380000,42.342635,-71.086982,2012
40-40A Anderson St,2700000,42.359952,-71.067637,2006
44 Prince St #203,782500,42.364754,-71.054841,2016
198-202 Warren Ave,3970000,42.324735,-71.082811,2019
81 Mount Vernon St,6500000,42.358029,-71.068496,2015
14-40 Beach St,9400000,42.351569,-71.062096,2011
40 Beacon St #5,3500000,42.356991,-71.066289,2022
40 Beacon St #2,4750000,42.356991,-71.066289,2019
40 Berkeley St,8500000,42.345894,-71.070582,2010
40 Bradford St,1830000,42.342328,-71.069607,2017
40 Commonwealth Ave #B,3100000,42.352769,-71.07383,2014
40 Commonwealth Ave #C,3100000,42.352769,-71.07383,2014
40 Court St,3.1e+07,42.359077,-71.059091,2014
40 Court St,3.7e+07,42.359077,-71.059091,2007
40 Dwight St #2,429000,42.344218,-71.068911,2012
40 Fay St #112,1700000,42.343516,-71.065415,2020
40-42 Fleet St #6,2800000,42.364433,-71.051989,2016
40 Gray St,1750000,42.345538,-71.071235,2020
40 Upton St,1740000,42.342656,-71.072736,2011
2 Avery St #37C,4900000,42.353193,-71.063136,2013
40-40A Melrose St,910000,42.348935,-71.068804,2013
38-40 Saint Botolph St #44,483500,42.346174,-71.079267,2008
40-44 Harrison Ave #1A,475000,42.351838,-71.061067,2009
40-44 Harrison Ave #2F,235000,42.351838,-71.061067,2015
390-400R Atlantic Ave,5e+07,0,0,2014
220 Boylston St #1610,185000,42.352207,-71.068581,2011
396-398 Hanover St,4750000,42.365958,-71.05295,2021
400 Stuart St #27D,2800000,42.348934,-71.074349,2022
400 Stuart St #30E,3950000,42.348853,-71.074296,2013
1 Dalton St #4005,5250000,42.345267,-71.084125,2019
416 Commonwealth Ave #401,1620000,42.34891,-71.089812,2010
1 Huntington Ave #403,3150000,42.349359,-71.076991,2017
404 Commercial St,1360000,42.366799,-71.051967,2008
262-266 Friend St,4500000,42.364743,-71.061387,2020
407-411 Washington St,2950000,42.35601,-71.060045,2011
408 Beacon St #1,2500000,42.351916,-71.085882,2015
409 Beacon St #4,665000,42.351721,-71.086259,2010
80 Broad St #PH1103,1170000,42.357638,-71.052772,2006
41-43 Bromfield St,1350000,42.356922,-71.060328,2006
41 Grove St,1639000,42.359898,-71.068778,2008
41-43 Phillips St #11,2695000,42.360434,-71.068,2020
41-45 Broad St,2050000,42.358322,-71.054312,2011
410 Boylston St #1,5200000,42.351316,-71.072455,2021
410 W Broadway #204,9e+05,42.337337,-71.048573,2022
410 Beacon St,8500000,42.351886,-71.085998,2015
410 Columbus Ave #2,469000,42.344462,-71.076801,2010
410 Boylston St #3,1700000,42.351316,-71.072455,2012
411 Marlborough St #3,632000,42.350214,-71.088883,2013
411 Marlborough St #6,710000,42.350214,-71.088883,2014
411 Shawmut Ave #4,840000,42.340362,-71.073683,2018
411 Shawmut Ave #8,1350000,42.340362,-71.073683,2017
411 Shawmut Ave #5,470000,42.340362,-71.073683,2020
412 Beacon St #9,2e+06,42.351597,-71.086734,2011
76 Marlborough St #2,1312500,42.353652,-71.075403,2004
416 Commonwealth Ave #515,498500,42.34891,-71.089812,2013
418 Columbus Ave #1,281000,42.344327,-71.076973,2000
439-441 Tremont St,1.1e+07,42.346681,-71.069198,2015
419 Boylston St,659000,42.351482,-71.072548,2000
42-48 Chauncy St #1A,125000,42.353708,-71.059939,2012
42-48 Chauncy St #1B,125000,42.353708,-71.059939,2012
42 Commonwealth Ave #5,2325000,42.352746,-71.07357,2013
42 Fayette St,2965000,42.348497,-71.067911,2015
42 Lomasney Way,1550000,42.365155,-71.064153,2014
42-48 Batterymarch St,1800000,42.357604,-71.053936,2021
423 Boylston St,1e+06,42.351456,-71.072641,2007
426 Hanover St #2-1,560000,42.366546,-71.052806,2010
426 Washington St,1e+08,42.355493,-71.060326,2007
43 Anderson St #1,765000,42.360043,-71.067765,2020
41-43 Fleet St,1546000,42.364254,-71.052042,2011
43 Union Park #3,1626800,42.657395,-70.622597,2020
43 Commercial Wharf #8,1582500,42.362155,-71.050624,2007
433 Marlborough St,3625000,42.349754,-71.090312,2021
569-575 Columbus Ave,4e+06,42.34095,-71.081547,2010
435 Beacon St,1400000,42.351438,-71.086981,2008
438 Marlborough St,960000,42.349828,-71.089557,2012
44-46 Winter St,2600000,42.35601,-71.061892,2000
44 Concord Sq,5100000,42.341791,-71.07947,2022
44 Concord Sq,4300000,42.341791,-71.07947,2014
445 Marlborough St,1700000,42.349754,-71.090312,2006
44 N Bennet St,1020000,42.365617,-71.054815,2009
44-44A Phillips St,2400000,42.360341,-71.068258,2021
44 W Newton St,2100000,42.339555,-71.074654,2003
46 Bradford St,354000,42.342437,-71.069411,2009
44-46 Temple Pl,3e+06,42.35532,-71.061946,2015
44-46 Temple Pl,3750000,42.35532,-71.061946,2017
40-42 Winter St,2200000,42.355997,-71.061861,2001
447 Beacon St #1,1525575,42.351249,-71.087986,2021
447 Park Dr #1C,282500,42.343099,-71.102243,2011
5 Saint George St,2150000,42.338586,-71.071727,2008
351-A North St,3350000,42.365491,-71.051509,2016
45 Pinckney St,1900000,42.358961,-71.066767,2011
45 Province St #1504,1149000,42.356912,-71.060201,2012
45 Province St #2601,2699000,42.356912,-71.060201,2013
45 Province St #1702,1575000,42.35676,-71.060201,2013
28-58 Lagrange St,7500000,42.351579,-71.064325,2009
31-45 Stuart St,7500000,42.351135,-71.064588,2009
15 Waltham St #B401,1250000,42.341368,-71.068276,2018
451 Park Dr #3C,169200,42.345594,-71.10471,2000
451 Park Dr #4A,354500,42.345594,-71.10471,2009
596 Tremont St #1,774000,42.343005,-71.073234,2014
46 Montgomery St,2010000,42.343713,-71.073202,2022
61-63 Wareham St,13750000,42.339027,-71.067322,2019
2-1/2 Battery Wharf #4607,1425000,0,0,2012
52 Hull St,5e+05,42.367038,-71.056437,2012
462 Shawmut Ave #1,1500000,42.338868,-71.07558,2015
463 Beacon St,3800000,42.351068,-71.088286,2012
463 Park Dr,3250000,42.345834,-71.104565,2008
464 Hanover St #A,2800000,42.367003,-71.052681,2013
467-469 Washington St,10950000,42.355164,-71.060998,2014
467-469 Washington St,16600000,42.355164,-71.060998,2018
47-51 Huntington Ave,6.6e+07,42.348267,-71.078511,2019
47-A&B Massachusetts Ave,4800000,42.349668,-71.08905,2015
49-49B Massachusetts Ave,4800000,42.350011,-71.088967,2015
471-477 Hanover St,3400000,42.366743,-71.052516,2019
477 Harrison Ave #4C,1475000,42.34195,-71.066283,2019
47 Revere St,4200000,42.359665,-71.068187,2022
48-52 Boylston St,3511131,42.352237,-71.063968,2017
48 Beacon St #12F,515000,42.356689,-71.067678,2010
48-52 Phillips St,9600000,42.36025,-71.068341,2019
483 Beacon St #36,275000,42.350944,-71.089126,2013
483 Beacon St #12B,375000,42.350833,-71.089187,2018
464 Commonwealth Ave #91,650000,42.348734,-71.093973,2018
534-538 Commonwealth Ave #7E,695000,42.348772,-71.095993,2016
484 Beacon St #2,1210000,42.351111,-71.088854,2013
484-486 Commercial St,1602260,42.367858,-71.0548,2011
485-495 Harrison Ave #101,875000,42.341963,-71.066435,2007
485-495 Harrison Ave #3509,912500,42.341963,-71.066435,2014
486 Beacon St #9,1150000,42.351085,-71.088951,2016
486-488 Beacon St #8&9,1150000,42.351186,-71.088208,2016
483 Beacon St #66,540000,42.350833,-71.089187,2016
49 Beacon St #10,524500,42.356689,-71.067678,2011
49-49R Charter St,1990000,42.367509,-71.0551,2018
492 Beacon St #12,7e+05,42.351009,-71.089244,2010
492 Beacon St #45,957750,42.351186,-71.088208,2012
495 Columbus Ave #1A,9e+05,42.342694,-71.079344,2017
499 Beacon St,4300000,42.350669,-71.089805,2015
220 Boylston St #9016,1750000,42.352354,-71.068329,2013
5 Appleton St #1C,385000,42.346463,-71.070118,2007
4-1/2 Arlington St #7,5375000,42.355002,-71.072296,2021
5 Commonwealth Ave,38590000,42.353818,-71.072043,2014
45 Milk St,2.1e+07,42.356703,-71.057523,2013
5 Garden Ct,1835000,42.364136,-71.053544,2020
5 Hanson St #3,770000,42.343385,-71.069624,2017
5 Marlborough St,4150000,42.35452,-71.072219,2013
5 Commonwealth Ave,1.8e+07,42.353818,-71.072043,2009
86 Marlborough St #9,1805000,42.353522,-71.075877,2020
5-5A Phillips St,1410000,42.36037,-71.066623,2008
34 Yarmouth St,3520000,42.346095,-71.07714,2020
5 Stillman St,2150000,42.363653,-71.055979,2022
5 Strong Pl,1374581,42.361079,-71.06836,2016
5 Battery St #1,3150000,42.366205,-71.052669,2021
5 Battery St #2,3150000,42.366205,-71.052669,2021
5 Battery St #3,3150000,42.366205,-71.052669,2021
5 Battery St #4,3150000,42.366205,-71.052669,2021
5 Battery St #5,3150000,42.366205,-71.052669,2021
5 Battery St #6,3150000,42.366205,-71.052669,2021
50 Beacon St #3,5e+06,42.356689,-71.067676,2008
50-52 Broad St,2100000,42.358053,-71.053853,2012
58-60 Burbank St,1950000,42.344241,-71.088067,2021
50 Charlesgate E #187,1,42.347513,-71.091426,2013
50 Charlesgate E #188,1,42.347513,-71.091426,2013
50 Charlesgate E #190,1,42.347513,-71.091426,2013
50 Charlesgate E #199,1,42.347513,-71.091426,2013
50 Charlesgate E #202,1,42.347513,-71.091426,2013
50 Charlesgate E #204,1,42.347513,-71.091426,2013
50 Charlesgate E #205,1,42.347513,-71.091426,2013
50 Charlesgate E #206,1,42.347513,-71.091426,2013
18 Worcester Sq #3,707100,42.336967,-71.075106,2020
50 Clarendon St #2,585000,42.345626,-71.07286,2015
50 Commonwealth Ave #204,1260000,42.352658,-71.073891,2019
50 Commonwealth Ave #602,2100000,42.352746,-71.073915,2022
50 Fleet St #PH1,3025000,42.36428,-71.051822,2019
48-50 Summer St,2550000,42.354603,-71.058983,2002
50 Saint Stephen St #2,474000,42.338084,-71.072865,2006
1 Avery St #18A,1550000,42.35337,-71.062515,2016
500 Atlantic Ave #18C,1522500,42.353734,-71.053491,2022
501 Columbus Ave #1,710000,42.342538,-71.079528,2019
505 Tremont St #412,2499000,42.34481,-71.070261,2017
505 Tremont St #210,1900000,42.34481,-71.070261,2021
505 Tremont St #704,2650000,42.345021,-71.070212,2017
636-638 Beacon St #404,630000,42.349366,-71.094958,2021
580 Washington St #508,1900000,42.353823,-71.062232,2018
300 Boylston St #509,1195000,42.351851,-71.070215,2008
390 Commonwealth Ave #509,795000,42.348872,-71.088555,2007
51-53 Brookline Ave,4e+05,42.34733,-71.098574,2010
19-21 Winchester St,1300000,42.349716,-71.068316,2008
51 E Concord St #2,1350000,42.336617,-71.073588,2008
51 Gloucester St,3400000,42.348769,-71.08384,2008
251 Newbury St,1400000,42.349597,-71.082832,2012
51 Rutland Sq #1,1975000,42.342333,-71.078652,2014
49-51 Franklin St,10600000,42.355574,-71.058767,2011
517 Columbus Ave #1,485000,42.342213,-71.07991,2013
467 Shawmut Ave #467,225000,42.339018,-71.07572,2016
518-518A Columbus Ave,2600000,42.342011,-71.079838,2008
52 Beacon St #2,7700000,42.356436,-71.068401,2022
52 Church St,2500000,42.349577,-71.068524,2009
52 Clarendon St #3,266000,42.345853,-71.072974,2010
52 Clarendon St #2,261000,42.345884,-71.07286,2010
52 Fayette St #3,750000,42.34842,-71.068051,2002
52 Fenway #3,232000,42.344953,-71.090608,2012
52 Revere St,1e+06,42.359482,-71.06834,2012
52 Westland Ave,12800000,42.343521,-71.087967,2012
52 Charlesgate E #164,1,42.347468,-71.09142,2013
52 Charlesgate E #167,1,42.347468,-71.09142,2013
52 Charlesgate E #171,1,42.347468,-71.09142,2013
52 Charlesgate E #172,1,42.347468,-71.09142,2013
52 Charlesgate E #176,1,42.347468,-71.09142,2013
56 Charlesgate E #130,1,42.347379,-71.091407,2013
56 Charlesgate E #136,1,42.347379,-71.091407,2013
56 Charlesgate E #140,1,42.347379,-71.091407,2013
56 Charlesgate E #144,1,42.347379,-71.091407,2013
56 Charlesgate E #147,1,42.347379,-71.091407,2013
56 Charlesgate E #151,1,42.347379,-71.091407,2013
523-523A Columbus Ave #A,2700000,42.341987,-71.080211,2013
523-523A Columbus Ave #B,2700000,42.341987,-71.080211,2013
523-523A Columbus Ave #C,2700000,42.341987,-71.080211,2013
523-523A Columbus Ave #D,2700000,42.341987,-71.080211,2013
523-523A Columbus Ave #E,2700000,42.341987,-71.080211,2013
523-523A Columbus Ave #F,2700000,42.341987,-71.080211,2013
523-523A Columbus Ave #G,2700000,42.341987,-71.080211,2013
527 Beacon St,9400000,42.350414,-71.090744,2022
528 Tremont St #2B,365000,42.344557,-71.070384,2022
53 Garden St #2,425000,42.359783,-71.066976,2010
147-149 Richmond St #4,610000,42.363309,-71.054132,2020
43-65 State St,14100000,42.358801,-71.056726,2011
535-545 Boylston St,7.7e+07,42.350748,-71.075303,2007
535 Newbury St,4660000,42.348117,-71.094741,2022
535 Newbury St,1400000,42.348117,-71.094741,2020
536-538 Commercial St,984000,42.368193,-71.056099,2011
540 Massachusetts Ave,2472200,42.338993,-71.079773,2013
54 Commonwealth Ave #3,5191000,42.352605,-71.074094,2017
54 Commonwealth Ave #4,5191000,42.352605,-71.074094,2017
54 Myrtle St #1,270000,42.359265,-71.066303,2011
1 Dalton St #5402,10950000,42.345267,-71.084125,2019
542 Massachusetts Ave #3,562500,42.338972,-71.079748,2012
53-55 Bromfield St,985000,42.356999,-71.060501,2013
53-55 Bromfield St,1e+06,42.356999,-71.060501,2016
55 Chestnut St,6900000,42.357304,-71.069069,2018
70 Brimmer St #237,450000,42.356292,-71.07141,2019
55 Saint Stephen St,710000,42.337606,-71.073198,2000
4-20 Chauncy St,37200000,42.354387,-71.059023,2006
55 Warren Ave #3,1250000,42.345031,-71.072138,2015
57 Brimmer St,3100000,42.356874,-71.071778,2015
12-14 Commonwealth Ave,33500000,42.353202,-71.071945,2017
556 Columbus Ave,1372000,42.341184,-71.080915,2005
55 Commonwealth Ave,1.4e+07,42.352765,-71.076048,2013
56 Beacon St,11500000,42.356544,-71.068338,2015
56 Berkeley St,1400000,42.346417,-71.070697,2009
56 Charlesgate E #142,355500,42.347379,-71.091407,2013
282 Newbury St #17,5e+05,42.349253,-71.084215,2012
56 Temple St,1550000,42.359881,-71.063449,2006
56 Berkeley St,6800000,42.346417,-71.070697,2018
554 Massachusetts Ave,3625000,42.338143,-71.078752,2017
56 Temple St,1050000,42.359881,-71.063449,2005
57 Hancock St,4450000,42.359379,-71.064369,2021
57 Snow Hill St #1,8e+05,42.367296,-71.056468,2016
58-60 Burbank St,370000,42.344241,-71.088067,2006
58-60 Burbank St,1100000,42.344241,-71.088067,2015
580 Washington St #901,1750000,42.353823,-71.062232,2017
580 Washington St #1414,880000,42.353823,-71.062232,2016
580 Washington St #705,1300000,42.353823,-71.062232,2016
580 Washington St #308,1800000,42.353823,-71.062232,2018
583 Beacon St #A,1550000,42.349636,-71.093721,2001
585 Boylston St #2,3145000,42.350411,-71.076532,2007
587 Beacon St,6400000,42.349601,-71.093841,2017
589 Beacon St,6400000,42.349583,-71.0939,2017
59 Appleton St,1700000,42.345823,-71.072481,2020
59 Hemenway St #3,5e+05,42.344947,-71.089806,2012
59 River St,2975000,42.357558,-71.070499,2019
593 Tremont St #1,2400000,42.34316,-71.073157,2022
27 Chestnut St #27,9800000,42.357387,-71.068216,2021
70-72 Mount Vernon St #5A70,9800000,42.358168,-71.067324,2021
6 Arlington St #4,5600000,42.355002,-71.072296,2015
6 Arlington St #1M,3250000,42.354791,-71.072323,2015
405 Marlborough St #32,415000,42.350289,-71.088605,2009
40 Winchester St #C3,2100000,42.349421,-71.068857,2008
100 State St #6,722000,42.359231,-71.055316,2011
6 Keswick St,1150000,42.345996,-71.105736,2005
6 Louisburg Sq,9500000,42.358018,-71.068958,2020
6 Marlborough St,6750000,42.35435,-71.073218,2006
8 Marlborough St,3250000,42.354484,-71.072356,2006
6 Newbury St #6,11480000,42.352399,-71.072124,2016
6 Union Wharf #6,2875000,42.365156,-71.049431,2016
6 Yarmouth St #1,3020000,42.345458,-71.076172,2018
6 Yarmouth St #2,3020000,42.345458,-71.076172,2018
6 Yarmouth St #3,3020000,42.345458,-71.076172,2018
6 Newbury St #6,13540000,42.352399,-71.072124,2017
60 State St,4285000,42.358976,-71.05678,2006
60 Charlesgate E #108,1,42.34729,-71.091394,2013
60 Charlesgate E #109,1,42.34729,-71.091394,2013
60 Charlesgate E #111,1,42.34729,-71.091394,2013
60 Charlesgate E #112,1,42.34729,-71.091394,2013
60 Charlesgate E #113,1,42.34729,-71.091394,2013
60 Charlesgate E #117,1,42.34729,-71.091394,2013
60 Charlesgate E #122,1,42.34729,-71.091394,2013
60 Charlesgate E #125,1,42.34729,-71.091394,2013
60 Charlesgate E #127,1,42.34729,-71.091394,2013
60 Charlesgate E #128,1,42.34729,-71.091394,2013
60 Charlesgate E #129,1,42.34729,-71.091394,2013
60 Charlesgate W #4A,850000,42.350061,-71.093019,2021
60 Chestnut St,5e+06,42.357185,-71.06959,2016
60 Commercial Wharf #60,625000,42.361937,-71.049694,2007
59-75 Queensberry St,1.4e+07,42.342761,-71.097716,2017
60 Kilmarnock St,2.8e+07,42.342869,-71.099323,2017
69-81 Kilmarnock St,6e+06,42.34256,-71.099447,2017
70-80 Kilmarnock St,3e+06,42.34265,-71.099231,2017
60 Mount Vernon St,1475000,42.358168,-71.067324,2022
60 Queensberry St #12,310000,42.342591,-71.097636,2016
60 Queensberry St #21,430500,42.342591,-71.097636,2013
58-60 South St,19877900,42.352089,-71.05706,2007
62-66 South St,19877900,42.35196,-71.057072,2007
68-74 South St,19877900,42.351766,-71.057089,2007
595-603 Newbury St,8250000,42.348112,-71.095713,2015
357 Commercial St #604,575000,42.366214,-71.051154,2013
300 Boylston St #605,2750000,42.351851,-71.070215,2006
116 Riverway #19,321000,42.343269,-71.104376,2016
59-61 Endicott St,675000,42.363615,-71.057088,2011
61 Mount Vernon St #C,4e+06,42.358029,-71.068496,2021
83 W Brookline St,7e+05,42.34072,-71.073691,2010
61-63 Berkeley St,3200000,42.346559,-71.070636,2016
145 Pinckney St #615,305000,42.358897,-71.07179,2013
62 Chestnut St,4300000,42.357111,-71.069094,2020
62 Mount Vernon St,1620000,42.358168,-71.067324,2000
62 Pinckney St #1,1400000,42.358776,-71.067697,2020
62 W Cedar St,4200000,42.359604,-71.070265,2021
45-63 Atlantic Ave #9B,950000,42.363001,-71.051147,2013
63-63A Myrtle St #3,803200,42.359443,-71.066695,2012
63 Rutland St,1757875,42.340298,-71.076405,2012
65 Hancock St,4950000,42.35924,-71.06449,2007
63 Atlantic Ave #7A,1515000,42.363721,-71.051067,2022
631 Tremont St #C,1400000,42.342224,-71.074921,2021
631 Tremont St #4,560000,42.342224,-71.074921,2019
633-633A Tremont St,3500000,42.342224,-71.074921,2018
203 W Springfield St #1,1275000,42.340394,-71.080146,2017
64 Charlesgate E #56,1,0,0,2013
64 Charlesgate E #66,1,42.3472,-71.091381,2013
64 Charlesgate E #68,1,0,0,2013
64 Charlesgate E #71,1,0,0,2013
64 Charlesgate E #77,1,0,0,2013
64 Charlesgate E #78,1,0,0,2013
64 Charlesgate E #83,1,0,0,2013
64 Charlesgate E #84,1,0,0,2013
64 Charlesgate E #87,1,0,0,2013
64 N Margin St,3605000,42.364813,-71.05666,2022
64 Queensberry St #314,375000,42.342542,-71.097826,2017
647 Boylston St #3,3e+06,42.349981,-71.078085,2014
154-156 Ipswich St,104400,42.34741,-71.093616,2000
65 Commonwealth Ave #8A,3e+06,42.352723,-71.0762,2014
65 Commonwealth Ave #7A,1522000,42.352723,-71.0762,2011
65 E India Row #22D,784000,42.358036,-71.051007,2019
65 E India Row #9F,1190000,42.358036,-71.051007,2014
65 E India Row #30A,610000,42.358036,-71.051007,2015
65 E India Row #30B,975000,42.358036,-71.051007,2014
261 Marlborough St #10,620000,42.35189,-71.082636,2017
65 Marlborough St #1-6,2150000,42.353711,-71.075535,2015
65 Salem St #2,455000,42.363258,-71.055952,2014
65 Salem St #2,640000,42.363258,-71.055952,2017
65 Salem St #5,6e+05,42.363258,-71.055952,2018
65 Salem St #4,630000,42.363258,-71.055952,2021
671-673 Boylston St #1,1325000,42.350515,-71.07842,2001
658 Massachusetts Ave,1e+06,42.336205,-71.07638,2012
65 Beacon St,14500000,42.356303,-71.069439,2011
66 Clarendon St #4,760000,42.346683,-71.07338,2013
66 Hereford St,1200000,42.348614,-71.085458,2014
70 Lincoln St #L219,647500,42.352217,-71.057924,2016
66 Queensberry St #219,365000,42.342604,-71.097951,2010
67-A Chestnut St,5475000,42.356978,-71.070074,2021
70 Brimmer St #337,5475000,42.356292,-71.07141,2021
67 Revere St,2380000,42.359562,-71.068799,2021
670 Massachusetts Ave #1,1787500,42.336094,-71.076243,2013
670 Massachusetts Ave #2,1787500,42.336094,-71.076243,2013
670 Massachusetts Ave #3,1787500,42.336094,-71.076243,2013
670 Massachusetts Ave #4,1787500,42.336094,-71.076243,2013
670 Massachusetts Ave #5,1787500,42.336094,-71.076243,2013
675 Tremont St #2,210000,42.34164,-71.076227,2003
676 Tremont St #1,1050000,42.341262,-71.076522,2013
67-A Chestnut St,5750000,42.356978,-71.070074,2017
70 Brimmer St #337,5750000,42.356292,-71.07141,2017
68 Commonwealth Ave #3,2250000,42.352422,-71.074803,2016
68-74 Harrison Ave #2,7600000,42.351378,-71.061108,2016
68 Marlborough St #B,1350000,42.353756,-71.075023,2016
68 Pinckney St,3875000,42.358862,-71.067914,2022
680 Massachusetts Ave,2900000,42.336001,-71.076129,2019
680 Tremont St #3,750000,42.341161,-71.076717,2016
695 Atlantic Ave,9360,42.351536,-71.056191,2006
69 Gainsborough St,4600000,42.342249,-71.08758,2013
76-110R Gainsborough St #28,4600000,42.342085,-71.087682,2013
76-110R Gainsborough St #29,4600000,42.342085,-71.087682,2013
76-110R Gainsborough St #30,4600000,42.342085,-71.087682,2013
76-110R Gainsborough St #31,4600000,42.342085,-71.087682,2013
76-110R Gainsborough St #60,4600000,42.342085,-71.087682,2013
76-110R Gainsborough St #61,4600000,42.342085,-71.087682,2013
76-110R Gainsborough St #62,4600000,42.342085,-71.087682,2013
76-110R Gainsborough St #63,4600000,42.342085,-71.087682,2013
76-110R Gainsborough St #64,4600000,42.342085,-71.087682,2013
76-110R Gainsborough St #65,4600000,42.342085,-71.087682,2013
69 Hancock St,1700000,42.359148,-71.06449,2008
69 Montgomery St,4325000,42.343366,-71.074754,2021
28-30 Cooper St,2275000,42.364386,-71.056563,2019
69 Pinckney St #4,1900000,42.358954,-71.067845,2020
69 Park Dr #14,346100,42.342611,-71.094941,2021
7 Chestnut St,4250000,42.357883,-71.066453,2022
7 Columbus Sq,1180000,42.351054,-71.068965,2001
7 Dartmouth Pl,2100000,42.34494,-71.07467,2020
7 Durham St #4,1360000,42.343987,-71.08134,2021
49-55 Berkeley St #49-55,565000,42.346258,-71.070492,2007
7 Hanson St #1,975000,42.343405,-71.069653,2014
44-48 Kilby St,3e+06,42.358097,-71.055311,2012
50 Kilby St,3e+06,42.358022,-71.05527,2012
10 Avery St #HOTEL,3e+06,42.353193,-71.063223,2010
10 Avery St #HOT&AD,932811,42.353193,-71.063223,2009
10 Avery St #HOTEL,17881469,42.353193,-71.063223,2009
7 Parkway St,350000,42.296519,-71.091109,2022
7 Unity St #2,175000,42.366355,-71.054,2012
7 Union Park,6150000,42.657368,-70.622558,2021
7 Warren Ave #17,2349000,42.34517,-71.071255,2022
7 W Hill Pl,3500000,42.360409,-71.07191,2016
6 Whittier Pl #112S,1047750,42.366192,-71.06722,2017
6 Whittier Pl #114S,1047750,42.366192,-71.06722,2017
70 Appleton St,3400000,42.345609,-71.072567,2019
64-74 Franklin St,21500000,42.355575,-71.057943,2006
70 Phillips St #6,475000,42.360234,-71.069296,2017
70 Westland Ave,2550000,42.34364,-71.088738,2007
3 Avery St #702,450000,42.35337,-71.062604,2014
350 North St #702,669231,42.365541,-71.051744,2014
45 Province St #706,940000,42.356912,-71.060201,2012
71 Charles St,2600000,42.358288,-71.070575,2019
71-71A Hancock St,3810000,42.358916,-71.064367,2015
71 Marlborough St #3,1675000,42.353844,-71.075403,2014
265-275 Dartmouth St #4H,6e+05,42.350105,-71.077253,2016
71 Newbury St,8250000,42.351945,-71.074186,2007
711 Atlantic Ave,68500000,42.350967,-71.056506,2019
711 Atlantic Ave,2.6e+07,42.350967,-71.056506,2012
72 Revere St,2050000,42.359464,-71.069049,2006
727-731 Boylston St #727-31,5100000,42.349437,-71.080193,2007
73 Beacon St #1,6200000,42.356144,-71.070115,2021
73 Beacon St #2,6200000,42.356144,-71.070115,2021
73 Marlborough St #6,1500000,42.35382,-71.07549,2009
70 Brimmer St #211,12500000,42.356292,-71.07141,2014
74 Beacon St,12500000,42.356102,-71.070286,2014
74 Saint Stephen St #4,568000,42.337639,-71.073506,2014
745 Atlantic Ave,54650000,42.350351,-71.056794,2003
75 Charles St #1B,1662500,42.358269,-71.070433,2016
75 Fulton St #21,999000,42.362195,-71.053187,2020
75 Mount Vernon St,4250000,42.358029,-71.068496,2014
75-75A E Dedham St,142000,42.338778,-71.069212,2012
75 Rutland St #1,640000,42.340516,-71.076683,2006
75 State St,6.35e+08,42.358991,-71.055672,2019
75 Waltham St #6,699000,42.343008,-71.070293,2015
76 Batterymarch St #1,1425000,42.356911,-71.052958,2004
74 Marlborough St #44,1182500,42.353678,-71.075308,2014
76 South St #76,2500000,42.351571,-71.057107,2020
76-78 N Margin St #6,402000,42.365426,-71.056695,2018
40 Traveler St #603,1320000,42.344302,-71.063212,2021
761 Harrison Ave,12300000,42.336969,-71.072765,2015
764 Tremont St #4,631500,42.33973,-71.079351,2016
77 Chestnut St,8300000,42.356974,-71.070509,2020
77 Montgomery St,3234000,42.343566,-71.07441,2019
77 Worcester St #4,730000,42.338841,-71.077182,2012
15 Warren Ave #3,810000,42.345399,-71.070746,2013
28-32 Atlantic Ave #336,3700000,42.363443,-71.05093,2021
776 Boylston St #E10A,7e+06,42.348892,-71.08186,2013
776 Boylston St #E9A,6300000,42.348809,-71.081814,2013
776 Boylston St #E9H,3650000,42.348809,-71.081814,2015
776 Boylston St #E10D,5175000,42.348809,-71.081814,2013
776 Boylston St #PH1E,27250000,42.348809,-71.081814,2021
776 Boylston St #PH2A,27250000,42.348809,-71.081814,2021
76-82 Charles St S,17900000,42.350031,-71.066531,2016
78 Gainsborough St #5E,761600,42.342125,-71.087532,2017
78 Mount Vernon St,6875000,42.358168,-71.067324,2021
70 Brimmer St #310,5e+05,42.356292,-71.07141,2022
78 Waltham St #1,1685000,42.343976,-71.071584,2021
70 Brimmer St #322,3e+05,42.356292,-71.07141,2014
79 Chestnut St,1625000,42.356931,-71.070709,2014
79 Westland Ave,950000,42.343882,-71.089118,2000
79 Waltham St #5,677500,42.343041,-71.070332,2013
399 Boylston St,90800000,42.351611,-71.07208,2007
8 Brimmer St #3,589000,42.358604,-71.071659,2013
8 Claremont Park,1687500,42.342099,-71.082625,2010
8 Dartmouth Pl,1650000,42.34477,-71.074587,2018
8 Keswick St,2560000,42.345985,-71.10573,2021
8 Marlborough St,3550000,42.354484,-71.072356,2007
183 Saint Botolph St,1850000,42.246694,-71.177759,2012
8 Symphony Rd,1125000,42.342659,-71.087141,2011
220-224 Clarendon St #12,705000,42.353367,-71.076419,2022
8 Unity St,2250000,42.366328,-71.053713,2018
8 Whittier Pl #14D,460000,42.366178,-71.067225,2021
8 Whittier Pl #16D,475000,42.366178,-71.067225,2014
80 Chandler St,5687500,42.346681,-71.072021,2021
80 Commonwealth Ave #1,5250000,42.352264,-71.075411,2016
80 Commonwealth Ave #2,5250000,42.352264,-71.075411,2016
80 Commonwealth Ave #3,5250000,42.352264,-71.075411,2016
80 Commonwealth Ave #4,5250000,42.352264,-71.075411,2016
80 Commonwealth Ave #5,5250000,42.352264,-71.075411,2016
80 Commonwealth Ave #6,5250000,42.352264,-71.075411,2016
80 Commonwealth Ave #7,5250000,42.352264,-71.075411,2016
80 Commonwealth Ave #8,5250000,42.352264,-71.075411,2016
80 Commonwealth Ave #2,1,42.352264,-71.075411,2014
80 Commonwealth Ave #3,1,42.352264,-71.075411,2014
80 Commonwealth Ave #4,1,42.352264,-71.075411,2014
80 Commonwealth Ave #5,1,42.352264,-71.075411,2014
80 Commonwealth Ave #6,1,42.352264,-71.075411,2014
80 Commonwealth Ave #7,1,42.352264,-71.075411,2014
80 Marlborough St #8,2400000,42.3536,-71.075592,2002
80 Fenway,2700000,42.342546,-71.091407,2000
81 Appleton St #3,1935000,42.34538,-71.073809,2022
81 Tyler St,1750000,42.348671,-71.061672,2021
1 Nassau St #1607,890000,42.348955,-71.063401,2021
81 Warren Ave,2225000,42.344802,-71.072983,2019
82 Jersey St #43,496000,42.3441,-71.097623,2022
827 Boylston St,20600000,42.348816,-71.08247,2017
829 Boylston St,20600000,42.348804,-71.082514,2017
83 Mount Vernon St,8550000,42.358029,-71.068496,2018
83 Myrtle St,2550000,42.359423,-71.067415,2021
83 Newbury St,6e+05,42.351803,-71.074702,2010
84 Atlantic Ave #84,1780000,42.362578,-71.050879,2020
84 Montgomery St,1e+05,42.343474,-71.074065,2010
84 W Cedar St #8,248000,42.360306,-71.070136,2014
849 Beacon St #3,1,42.347185,-71.103602,2015
849 Beacon St #4,1,42.347185,-71.103602,2015
849 Beacon St #5,1,42.347185,-71.103602,2015
85 E India Row #26G,930000,42.358311,-71.050532,2018
85 E India Row #31C,975000,42.358311,-71.050532,2015
85 Myrtle St,6350000,42.359417,-71.067487,2018
85-87 Wendell St,1750000,42.356918,-71.052462,2022
91 Newbury St,9900000,42.351708,-71.075046,2006
851 Beacon St,3250000,42.349091,-71.095623,2019
851 Beacon St,4250000,42.349091,-71.095623,2019
857 Beacon St #24,720000,42.347068,-71.104036,2017
857 Beacon St #52,435000,42.347068,-71.104036,2015
86 Charles St,2880000,42.358291,-71.070709,2010
86 Chestnut St,3300000,42.356778,-71.070975,2018
151 Tremont St #12U,305000,42.355397,-71.063003,2001
333 Washington St #207B,7e+05,42.356845,-71.059073,2020
769 Tremont St #1A,745000,42.339689,-71.079845,2022
86 Massachusetts Ave,1460000,42.34887,-71.088394,2008
86 Commercial Wharf,8e+06,0,0,2010
219-223 Columbus Ave #304,1945000,42.347429,-71.073487,2016
87 Dartmouth St,2500000,42.345481,-71.074922,2009
87 Gainsborough St #107,776667,42.342409,-71.088451,2018
87 Gainsborough St #308,815000,42.342409,-71.088451,2022
87 Gainsborough St #6,397000,42.342409,-71.088451,2014
87 Pinckney St #4,3e+06,42.35894,-71.068829,2022
87 Gainsborough St #105,830000,42.342409,-71.088451,2019
877 Beacon St,1500000,42.346989,-71.104332,2012
88 Beacon St #2,7e+05,42.355758,-71.071707,2016
88 Prince St #2,295000,42.365483,-71.055999,2012
88-88A W Cedar St,4400000,42.360399,-71.070147,2013
88-88A W Cedar St,2500000,42.360399,-71.070147,2011
70 Brimmer St #116,460000,42.356292,-71.07141,2021
89 Warren Ave,1040000,42.344729,-71.073252,2003
899 Beacon St,1300000,42.346789,-71.104015,2014
893-901 Boylston St,5e+06,42.348438,-71.08389,2000
893-901 Boylston St,9650000,42.348438,-71.08389,2008
220-224 Clarendon St #4,665000,42.353367,-71.076419,2021
9 Brimmer St,4425000,42.35855,-71.071907,2011
5-9 Broad St,2800000,42.359106,-71.054706,2014
9-9A Charter St,2425500,42.366128,-71.052926,2012
9 Holyoke St #3,535000,42.344627,-71.077523,2008
9 Keswick St,2275000,42.345909,-71.105951,2020
292-296 Newbury St #A,1654615,42.348996,-71.084451,2011
292-296 Newbury St #B,1593109,42.348996,-71.084451,2011
292-296 Newbury St #C,1535709,42.348996,-71.084451,2011
292-296 Newbury St #D,1206567,42.348996,-71.084451,2011
7 Miner St,1e+06,42.346991,-71.103389,2002
9 N Margin St,2350000,42.364131,-71.056504,2012
9 Park St,4150000,42.357512,-71.062846,2011
45 Chestnut St,2100000,42.357408,-71.068594,2000
9 Walnut St,6850000,42.357552,-71.066136,2017
9 Willow St #52,350000,42.357631,-71.068232,2006
9-11 Clark St,2150000,42.365207,-71.052977,2022
70 Brimmer St #331,455000,42.356292,-71.07141,2018
90-90A Chestnut St,5130000,42.356784,-71.07052,2018
90 Commercial St #3,687000,42.361738,-71.052966,2021
90 Marlborough St #6,5650000,42.35347,-71.076067,2016
90 Prince St #3,489000,42.365486,-71.056004,2013
90 Salem St #6,8e+05,42.363689,-71.05578,2022
1 Avery St #20A,2175000,42.35337,-71.062515,2014
90-92 Endicott St,950000,42.364136,-71.057386,2011
220 Boylston St #9001&3,5300000,42.352207,-71.068581,2013
903 Beacon St,2250000,42.346613,-71.105736,2021
300 Boylston St #906,3320000,42.351851,-71.070215,2012
903-905 Boylston St,8800000,42.348367,-71.084151,2016
916 Beacon St #1,680000,42.346458,-71.106359,2019
92 Appleton St,3e+06,42.345402,-71.07336,2019
92 Beacon St #41,675000,42.355663,-71.072081,2007
92 Pinckney St,3950000,42.358738,-71.07011,2016
93 Charter St,1125000,42.367412,-71.054716,2009
80 Revere St #4,460000,42.359453,-71.069396,2006
93 Warren Ave,850000,42.344693,-71.073386,2011
94 Charles St,3300000,42.358561,-71.070825,2013
197 Commonwealth Ave #4,1432500,42.35152,-71.08072,2018
280 Commonwealth Ave #309,880000,42.34988,-71.084357,2016
95 Gainsborough St #308,757587,42.342473,-71.088869,2022
95 Saint Botolph St,3e+06,42.246694,-71.177759,2017
95 Warren Ave,850000,42.344674,-71.073454,2011
96 Beacon St #2,5450000,42.355538,-71.072551,2022
96 Beacon St #PH,1.3e+07,42.355538,-71.072551,2014
96-96B W Cedar St,3075000,42.360833,-71.070133,2013
97 Appleton St,2850000,42.345484,-71.073778,2022
97 Charles St #97,1150000,42.358904,-71.070615,2022
97 Mount Vernon St #21,1230000,42.357929,-71.069481,2015
97 Warren Ave,4250000,42.344656,-71.073521,2019
98 Chandler St #3,1025000,42.346301,-71.073064,2016
89-105 Bedford St,1e+07,42.353208,-71.058514,2003
99-99A Charles St,2550000,42.35898,-71.070622,2003
99 Endicott St,2125000,42.364343,-71.057168,2017
99 Pinckney St #2,702500,42.35893,-71.069392,2012
99 Summer St,1.98e+08,42.353489,-71.057825,2019
99 Summer St,110800000,42.353489,-71.057825,2013
101 W Springfield St,4900000,42.338032,-71.077471,2017
99 W Springfield St,4900000,42.337974,-71.077407,2017
520 Beacon St #5D,615000,42.350691,-71.090426,2016
215 Commonwealth Ave #3,2750000,42.351219,-71.081508,2019
1313 Washington St #606,1875000,42.341948,-71.068372,2020
41-43 Phillips St #17,2800000,42.360434,-71.068,2000
285 Columbus Ave #805,1415000,42.346859,-71.074162,2008
2-1/2 Battery Wharf #4402,1150000,0,0,2013
28 Temple St #5,1438125,42.360419,-71.063514,2020
7 Primus Ave #8,375000,42.360002,-71.069615,2007
40 Battery St #308,1,42.366496,-71.051362,2013
36 Fleet St #6,340000,42.364462,-71.052079,2015
16 Margaret St,750000,42.365995,-71.055736,2005
33 Snow Hill St,725000,42.366851,-71.056364,2013
290 Commonwealth Ave #21,2050000,42.350341,-71.084721,2021
335 Beacon St #2,269900,42.352539,-71.082869,2012
20 Grove St,2325000,42.360478,-71.068573,2019
21 Father Francis Gilday St #112,1039000,42.338063,-71.072716,2016
81 Richmond St #4E,850000,42.362522,-71.053059,2001
102 Revere St,1950000,42.359419,-71.070467,2016
206 W Brookline St #1,1484500,42.343679,-71.076798,2019
21 Oak St #1,979000,42.348384,-71.063967,2022
65 Hemenway St #9,7e+05,42.344786,-71.089853,2021
91 Appleton St #91,1784000,42.34554,-71.073566,2019
1 Marlborough St #2,999000,42.352044,-71.082059,2003
45 Lawrence St #2,9e+05,42.345591,-71.074628,2015
91 Waltham St #5,295000,42.343139,-71.07045,2000
2 Avery St #36G,1330000,42.353193,-71.063136,2011
1 Dalton St #4004,3400000,42.345267,-71.084125,2019
65 Burbank St #17,415000,42.344582,-71.088977,2017
60 Queensberry St #6,275000,42.342591,-71.097636,2011
271 Beacon St #3,775000,42.353364,-71.079823,2019
70 Chandler St,2257000,42.34659,-71.072005,2013
112 Fulton St #4A,380000,42.362875,-71.052768,2000
130 Pembroke St #1,559250,42.342776,-71.077295,2000
42 Joy St #10,665000,42.360064,-71.0652,2005
56 Charlesgate E #143,160000,42.347379,-71.091407,2004
341 Beacon St #6D,3675000,42.352468,-71.083143,2021
1672-R Washington St #PH2,1395000,42.337702,-71.075331,2014
45 Garden St #4,527000,42.360018,-71.066992,2020
1 Franklin St #2504,2300000,42.356057,-71.059157,2020
74 Mount Vernon St #2R,3e+05,42.358168,-71.067324,2006
131 Newbury St,6200000,42.351206,-71.076939,2008
569 Boylston St,3800000,42.350521,-71.076139,2008
115 Pembroke St #1,850000,42.342526,-71.07674,2004
512 Massachusetts Ave #2,317000,42.338829,-71.079739,2003
210 South St #9-3,540000,42.350224,-71.057346,2006
170 Endicott St,1625000,42.365817,-71.057594,2016
36 Worcester St #1,902750,42.338421,-71.077017,2018
758 Tremont St #2,760000,42.339824,-71.079178,2015
170 Tremont St #1402,525000,42.353617,-71.064016,2004
42 Fenway #6,525000,42.345791,-71.090551,2015
73 Revere St #7,459000,42.359644,-71.069059,2021
435 Shawmut Ave #3,720000,42.339721,-71.074689,2016
60 Rutland St #1,965000,42.340035,-71.076404,2017
75 Fulton St #12,542000,42.362195,-71.053187,2008
70 Brimmer St #205,250000,42.356292,-71.07141,2008
67-A Chestnut St,3500000,42.356978,-71.070074,2003
74 Mount Vernon St #2R,349900,42.358168,-71.067324,2007
65 E India Row #14D,775000,42.358036,-71.051007,2017
87 Gainsborough St #6,190000,42.342409,-71.088451,2000
90 Gainsborough St #104E,189000,42.342147,-71.087937,2004
115 Marlborough St #4,684500,42.353347,-71.077251,2002
65 E India Row #19D,266382,42.358036,-71.051007,2007
16 Chestnut St,4500000,42.35757,-71.066994,2008
333 Washington St #413,78334,42.356845,-71.059073,2009
65 E India Row #18E,917500,42.357947,-71.050993,2022
85 E India Row #29D,795000,42.358311,-71.050532,2019
29 Goldsmith St #1,905000,42.307976,-71.118829,2022
10 Bowdoin St #317,875000,42.360946,-71.063021,2004
1 Huntington Ave #504,1100000,42.349359,-71.076991,2013
500 Atlantic Ave #17D&E,1790000,42.353653,-71.053436,2006
500 Atlantic Ave #17D&E,1790000,42.353653,-71.053436,2006
91 Waltham St #3,775000,42.343139,-71.07045,2020
75 Clarendon St #408,840000,42.347292,-71.073417,2018
20 E Springfield St #5,459900,42.336509,-71.075698,2008
1789 Centre St #202,734900,0,0,2022
17 Exeter St,1250000,42.352088,-71.080643,2012
17 Aberdeen St #2,285000,42.346456,-71.103713,2005
327 Beacon St #4,2140000,42.352635,-71.082503,2011
327 Beacon St #5,2140000,42.352635,-71.082503,2011
67 Worcester St #1,322000,42.338772,-71.077103,2001
41 E Concord St #2,515000,42.336993,-71.07406,2006
22 Union Park #4,779000,42.657843,-70.622582,2014
70 Brimmer St #126,2e+05,42.356292,-71.07141,2006
70 Brimmer St #316,2e+05,42.356292,-71.07141,2006
548-548B Tremont St,1e+06,42.343958,-71.07141,2001
2-1/2 Battery Wharf #3306,905000,0,0,2012
464 Hanover St #7,607500,42.366961,-71.052569,2015
326-328 Commercial St #35,660000,42.365616,-71.051266,2015
500 Commercial St #B,2400000,42.367754,-71.054396,2015
1 Avery St #25B,2500000,42.35337,-71.062515,2005
8 Whittier Pl #8B,340000,42.366178,-71.067225,2009
100 Saint Marys St #9,630000,42.346285,-71.106708,2021
1111 Boylston St #44,290000,42.346668,-71.090363,2015
23 Saint Stephen St #5,256000,42.342924,-71.086231,2011
12 Winchester St #1,487500,42.349681,-71.067598,2012
413-415 Commonwealth Ave #6,1850000,42.348792,-71.090739,2016
94 W Springfield St #1,820000,42.33754,-71.077228,2013
35 S Russell St,1835000,42.360664,-71.066091,2017
660 Massachusetts Ave #4,308000,42.336186,-71.076357,2002
120 Commercial St #2-2,610000,42.362133,-71.052603,2016
65 Park Dr #5,120000,42.342777,-71.094816,2002
1 Charles St S #710,965000,42.351787,-71.067367,2006
186 Commonwealth Ave #14,925000,42.351098,-71.079858,2020
25 Melrose St,975000,42.349045,-71.06803,2014
4 N Bennet Ct #5,430000,42.364991,-71.053915,2016
19 Hancock St #1,1120000,42.360632,-71.064582,2021
9 Hawthorne Pl #4D,547000,42.363479,-71.066446,2012
505 Tremont St #906,4862500,42.345021,-71.070212,2022
14 Milford St #1,2825000,42.344133,-71.069905,2017
386 Commonwealth Ave #61,324000,42.348789,-71.090851,2010
144 Chandler St #2,370000,42.346046,-71.073958,2005
210 South St #9-6,795000,42.350224,-71.057346,2006
466 Commonwealth Ave #601,550000,42.348733,-71.094033,2014
505 Tremont St #704,1599000,42.345021,-71.070212,2007
333 Washington St #316,3e+05,42.356845,-71.059073,2006
21 Father Francis Gilday St #207,710000,42.338063,-71.072716,2006
63-63A Myrtle St #2,425000,42.359443,-71.066695,2001
360 Newbury St #707,1120000,42.348168,-71.087641,2006
101 Mount Vernon St #3,910000,42.357902,-71.069668,2000
408 Columbus Ave #2,735000,42.344496,-71.076758,2009
33 Irving St #3,470000,42.360126,-71.06649,2014
18 Concord Sq #1,680000,42.341052,-71.078751,2010
41 Pinckney St #1,1300000,42.358962,-71.066613,2022
1 Charles St S #912,815000,42.351787,-71.067367,2005
27 Worcester St #2,7e+05,42.338253,-71.076482,2013
6 Whittier Pl #5A,4e+05,42.366192,-71.06722,2006
11 Saint George St #14A,396386,42.338413,-71.072101,2001
100 Belvidere St #5H,1500000,42.346046,-71.083886,2002
180 Beacon St #15C,560000,42.354329,-71.076986,2002
193 Marlborough St #3,1465000,42.352422,-71.080634,2003
33 Concord Sq #1,793000,42.341703,-71.079071,2004
197 Commonwealth Ave #1,376000,42.351219,-71.081508,2001
348 Columbus Ave #348,759000,42.345796,-71.075149,2005
360 Newbury St #602,630000,42.348168,-71.087641,2007
6 Grove St #2,360000,42.360951,-71.068618,2004
173 Endicott St,2025000,42.365907,-71.057508,2022
76 W Cedar St #5R,463000,42.360181,-71.070147,2006
5 Grove St #5,195000,42.360938,-71.06886,2000
100 Fulton St #1A,437500,42.36277,-71.052884,2003
343 Commercial St #212,1450000,42.366097,-71.051114,2012
120 Fulton St #2D,7e+05,42.362941,-71.052695,2003
343 Commercial St #302,1650000,42.366097,-71.051114,2014
28-32 Atlantic Ave #317,1475000,42.363386,-71.051048,2015
300 Commercial St #203,1275000,42.365011,-71.051232,2017
2-1/2 Battery Wharf #4402,1275000,0,0,2014
343 Commercial St #201,1250000,42.366097,-71.051114,2013
357 Commercial St #409,950000,42.366214,-71.051154,2017
464 Commonwealth Ave #72,385000,42.348734,-71.093973,2005
1 Charles St S #1205,1180000,42.352495,-71.067469,2022
350 North St #500,542000,42.365541,-71.051744,2013
1 Charles St S #307,715000,42.351787,-71.067367,2019
485-495 Harrison Ave #501,650000,42.34195,-71.066283,2005
